nid,id,Latitude,Longitude,Overall_Rating,Number_Reviews,Price_Levels,Food_Rating,Service_Rating,Value_Rating,Atmosphere,Name
1,8451,50.57445,5.546209,3,13,1,3,3.5,4,NA,"Lunch Garden, Boncelles"
2,10829,49.507158,5.474825,4.5,127,4,4.5,4.5,4,4.5,"La Grappe D'or, Torgny"
3,10830,49.508072,5.473907,3,15,2.5,3.5,3.5,4,NA,"La Romanette, Torgny"
4,10463,49.564514,5.832953,4.5,20,9,4.5,4,4.5,NA,"Friterie Dewit, Aubange"
5,10464,49.564957,5.812449,4,39,9,4,4,3.5,3.5,"La Corte dei Sapori, Aubange"
6,8660,49.565307,5.531575,4.5,73,2.5,4.5,4.5,4,NA,"La Mangeoire, Virton"
7,8665,49.566193,5.532479,4,24,9,4,3.5,4,3.5,"Le Majorelle, Virton"
8,8664,49.567102,5.533169,4,25,2.5,4,4.5,4,4,"Le Marmiton, Virton"
9,8659,49.567132,5.533161,4.5,110,2.5,4.5,4.5,4.5,4.5,"L'escalier, Virton"
10,8658,49.567136,5.534569,4.5,134,2.5,4.5,4.5,4.5,4,"Le Franklin, Virton"
11,8663,49.579629,5.581721,4.5,25,2.5,4.5,4,4.5,5,"Au Coeur de la Gaume, Virton"
12,8661,49.579707,5.580936,4.5,50,4,4.5,4.5,4.5,4.5,"Le Lion d'Or, Virton"
13,10034,49.605279,5.811442,4.5,33,9,5,4.5,4,4,"Chez Tchoutchou, Messancy"
14,10038,49.623858,5.810347,2.5,71,2.5,3,3,2.5,3,"Chichi's, Messancy"
15,11055,49.636033,5.34678,3.5,36,9,4,3.5,4,NA,hostellerie D'orval
16,6386,49.637168,5.890512,3,22,1,3,3,4,3,"Ikea, Arlon"
17,10036,49.639999,5.815509,3.5,57,2.5,3,3,3,3.5,"Vaudree 7, Messancy"
18,6352,49.650149,5.779315,4.5,135,4,4.5,4,4,4,"La Regalade, Arlon"
19,6392,49.653074,5.819756,2.5,52,1,3,3,3,2.5,"Pizza Hut, Arlon"
20,11123,49.674692,5.550184,5,67,1,5,5,4.5,5,"Frank Frites & Burgers, Sainte-Marie-sur-Semois"
21,6375,49.675266,5.824204,4,30,1,4.5,3.5,4.5,3.5,"Friterie de la Spetz, Arlon"
22,6381,49.677255,5.824446,3.5,19,9,3.5,3,4,NA,"Lunch Garden, Arlon"
23,6371,49.682212,5.811662,3.5,66,2.5,4,4,3.5,4,"Pizzeria Trulli, Arlon"
24,6365,49.682856,5.813103,4,25,9,4,4,4,NA,"Brasserie TWINS, Arlon"
25,6373,49.68314,5.814624,3.5,69,2.5,4,3.5,4,3.5,"pinocchio, Arlon"
26,6379,49.683297,5.813248,4,21,9,4,4,4,3.5,"L'Arlequin, Arlon"
27,6385,49.683374,5.813108,3.5,19,2.5,4,3.5,4,4,"A L'Ecu de Bourgogne Hotel- Brasserie, Arlon"
28,6380,49.683673,5.815573,3.5,38,9,3.5,4,4,4,"Le Dean, Arlon"
29,6378,49.683775,5.818313,4.5,16,1,4,4.5,4.5,5,"Le Chantilly, Arlon"
30,6367,49.683787,5.814578,4,19,2.5,4.5,4.5,3.5,NA,"Maison Knopes, Arlon"
31,6388,49.683866,5.814451,3,18,2.5,2.5,3,3,2,"Le Palais D'Asie, Arlon"
32,6370,49.684034,5.814468,4,12,9,4,3.5,3.5,NA,"Chez Geppetto, Arlon"
33,6382,49.684283,5.813624,4,18,2.5,4,4,3.5,3.5,Cocoon Arlon
34,6374,49.684634,5.812487,3.5,44,2.5,3.5,4,3.5,3.5,"Chez Faty, Arlon"
35,6355,49.684641,5.811102,4.5,93,2.5,4,4.5,4,4.5,"Le Kalinka, Arlon"
36,6363,49.684736,5.813311,4,87,2.5,4,4,3.5,4,"Wasabi Restaurant, Arlon"
37,6366,49.684825,5.813375,4,63,2.5,4,4,4,3.5,"La Table de Marie, Arlon"
38,6353,49.684926,5.813187,4,144,2.5,4.5,4,4,4,"Le Fils de Paul, Arlon"
39,6384,49.684942,5.810409,3.5,29,9,3.5,3.5,3.5,4,"Western Spaghetti, Arlon"
40,6356,49.685352,5.813924,4,87,2.5,4.5,4.5,4,3.5,"Da Franco's, Arlon"
41,6358,49.685354,5.813909,4,114,2.5,4,4,4,4,"Zorba Le Grec, Arlon"
42,6361,49.685609,5.810759,3.5,137,2.5,4,4,3.5,4,"Faubourg 101, Arlon"
43,6389,49.685733,5.814467,3.5,69,2.5,4,3.5,3.5,4,"La Couscoussiere, Arlon"
44,6387,49.688533,5.79297,3,57,1,3,3.5,3.5,3,"Royal Wok, Arlon"
45,9488,49.697986,5.309974,3.5,19,9,3.5,3.5,3.5,3,"L'Etoile de Chine, Florenville"
46,9485,49.698183,5.307708,4.5,44,9,4.5,4.5,4.5,4,"Le Syrtaki, Florenville"
47,9489,49.698308,5.310749,3,61,2.5,3.5,3.5,3,4,"Brasserie Albert 1er, Florenville"
48,9482,49.698731,5.311656,4,173,2.5,4,4,4,4,"Le Relais Des Oliviers, Florenville"
49,9481,49.698793,5.311754,4,157,2.5,4,4,3.5,3.5,"Le Florentin Restaurant, Florenville"
50,11011,49.706366,5.261227,4,27,2.5,4,4,3.5,4,"La Vieille Ferme, Chassepierre"
51,9849,49.727671,5.648469,4,144,2.5,4,4,3.5,4,"L'Enfant Gate, Habay-la-Neuve"
52,10982,49.728382,5.241272,4,37,9,4.5,4.5,4.5,4.5,"La Forgerie, Sainte-Cecile"
53,9851,49.728744,5.647904,4,14,9,4,4,4,NA,"Frit' Oli, Habay-la-Neuve"
54,10981,49.729531,5.242879,4.5,25,9,4.5,4,4.5,4,"Hostellerie Sainte Cecile, Sainte-Cecile"
55,9850,49.734955,5.670469,4,140,4,4,4,3.5,3.5,"Les Plats Canailles de la Bleue Maison, Habay-la-Neuve"
56,7422,49.76203,5.134313,5,13,2.5,5,5,4.5,5,"Hostellerie du Cerf, Bouillon"
57,10816,49.775017,5.238482,3.5,32,2.5,3.5,4,3.5,3.5,"Au Randonneur, Herbeumont"
58,10817,49.780886,5.237799,3.5,15,1,3.5,4,4,4,"La Chatelaine aux Chevaliers, Herbeumont"
59,7423,49.784112,5.071188,3.5,11,1,3.5,3.5,4,NA,"L'auberge D'alsace, Bouillon"
60,7411,49.790197,5.064241,4.5,37,4,4.5,4.5,4.5,4,"Hotel Des Ardennes, Bouillon"
61,7413,49.791435,5.067029,4,68,2.5,4,4,4,4.5,Brasserie Bouillon
62,7417,49.791941,5.065862,3.5,229,2.5,3.5,4,3,3.5,"Le Roy de la Moule, Bouillon"
63,7407,49.792291,5.066237,4,75,2.5,4,4.5,4,3.5,"Chez Betty, Bouillon"
64,7409,49.79242,5.066291,4.5,96,2.5,4.5,4,4.5,4,"Les Remparts, Bouillon"
65,7426,49.793294,5.067128,3,44,2.5,2.5,2.5,2.5,2,"Trident, Bouillon"
66,7420,49.79369,5.067711,3.5,34,2.5,4.5,4,4,3.5,"Le Majestic, Bouillon"
67,7418,49.793931,5.067855,4,33,1,4,4,4,3,"The Beetle, Bouillon"
68,7406,49.794801,5.069454,4.5,164,2.5,4.5,4.5,4,4,"Le Mont-Blanc, Bouillon"
69,7419,49.795702,5.070185,4,113,2.5,4.5,4.5,4,4.5,"Le Windsor, Bouillon"
70,7429,49.79657,5.070995,2.5,66,2.5,3,2.5,3,NA,"La Tannerie, Bouillon"
71,7415,49.796991,5.076201,4,50,4,4,4,3.5,4,"La Ferronniere, Bouillon"
72,11065,49.797413,5.006981,4,24,2.5,4,4,4.5,NA,"Le Relais, Corbion sur Semois"
73,11068,49.831454,5.055353,4.5,39,2.5,4.5,4.5,4.5,4,"La Grange Aux Saveurs, Ucimont"
74,9168,49.83783,5.455336,4.5,13,1,4.5,4,4.5,5,"Chez Mimil, Neufchateau"
75,10648,49.840006,5.004749,3.5,60,2.5,3.5,3,3.5,3.5,"Au Point de Vue, Rochehaut"
76,10647,49.840396,5.005834,4.5,31,9,4,4.5,4,4,"L'An 1600, Rochehaut"
77,9173,49.840684,5.424377,3.5,14,9,5,4,4.5,5,"Cap Au Vert, Neufchateau"
78,9169,49.840754,5.434786,4,13,9,4,4,4,3.5,"Grande Muraille, Neufchateau"
79,9174,49.840819,5.429414,3,40,2.5,3,2.5,3,3,"L'Ardoise, Neufchateau"
80,9166,49.840902,5.43612,4.5,11,9,4.5,4.5,4.5,NA,"Au Chest'Book, Neufchateau"
81,9162,49.841263,5.436548,4.5,21,9,4.5,4.5,4.5,NA,"Le P'tit 13, Neufchateau"
82,7424,49.841395,5.009864,3.5,32,2.5,3.5,3,3.5,4.5,"La Vieille Ardenne, Bouillon"
83,10562,49.842034,4.969518,4.5,42,2.5,4.5,4.5,4.5,4,"Au Roy Gourmand, Alle-sur-Semois"
84,9172,49.842104,5.434004,3.5,21,2.5,3.5,3,3.5,NA,"La Stradella Pizzeria, Neufchateau"
85,9171,49.842169,5.434199,4,15,2.5,4,4,4,4,"Le Sucre-Sale, Neufchateau"
86,9165,49.844542,5.435436,4.5,52,2.5,4.5,4.5,4,4.5,"La Fregate, Neufchateau"
87,10563,49.848137,4.969453,4.5,34,2.5,4.5,4.5,4,3.5,"Fief de Liboichant, Alle-sur-Semois"
88,9170,49.851627,5.435438,4,35,9,4,4,4,3.5,"Brasserie du Perchepai, Neufchateau"
89,11091,49.85351,4.96712,4,58,2.5,4,3.5,3.5,4,"Mon Manege a Toi, Vresse"
90,9774,49.854139,5.252914,3.5,59,2.5,4,4,4,4,"La Vendetta, Bertrix"
91,9773,49.854314,5.252758,3.5,48,2.5,4,4,3.5,3,"Le Galopant, Bertrix"
92,10989,49.856992,5.705412,4,15,2.5,4,4,4,3.5,"Le Martin Pecheur, Fauvillers"
93,9807,49.863859,4.88514,4.5,87,2.5,4.5,4.5,4.5,4.5,"Au petit Chaudron, Vresse-sur-Semois"
94,9808,49.872233,4.931805,4,72,2.5,4,4,4,4,"la Riviera, Vresse-sur-Semois"
95,9809,49.872822,4.932913,4,24,2.5,4.5,4,4,3,"Le Relais de Vresse, Vresse-sur-Semois"
96,10092,49.903863,5.136214,3.5,15,2.5,3.5,3,3,NA,"Le Temps Des Saveurs, Paliseul"
97,8568,49.914846,5.359268,4,15,2.5,3,4,3.5,3,"BEST WESTERN L'Amandier Restaurant, Libramont"
98,8564,49.915067,5.361651,3.5,76,2.5,3.5,3.5,3.5,3.5,"Cafe Louise, Libramont"
99,8562,49.920652,5.37893,4.5,77,2.5,4.5,4.5,4,4,"Restaurant le Creta, Libramont"
100,10825,49.920884,5.035636,4,13,1,4.5,4.5,4.5,NA,"chez bull snack -friterie, Bievre"
101,8565,49.921347,5.377525,3.5,21,9,3.5,4,3.5,NA,"L'etoile De Chine, Libramont"
102,8569,49.922102,5.378445,3,18,1,2.5,3,2.5,3,"La Vendetta Due, Libramont"
103,8567,49.923008,5.379322,4,14,9,4.5,3.5,4,NA,"D'Jan Snack, Libramont"
104,10091,49.959792,5.123803,4.5,12,2.5,4.5,4.5,4.5,NA,"Le Clairval, Paliseul"
105,8945,49.959904,4.453072,4.5,16,9,4.5,4.5,4,4.5,"La Maisonnette d obelix, Couvin"
106,10090,49.959952,5.12251,5,295,4,5,4.5,4.5,4.5,"La Table de Maxime, Paliseul"
107,11081,49.966187,5.13497,4,73,2.5,4,4.5,4,NA,Les Terrasses de l'Our
108,10928,49.977358,5.08763,4,16,9,4.5,4,4.5,4.5,"La Detente Gourmande, Porcheresse"
109,6848,49.979799,5.764733,4,42,2.5,4,4.5,4,3.5,"Chalet Royal, Bastogne"
110,10850,49.98289,5.256242,4,20,1,4,4,3.5,4,"Le Krousty, Libin"
111,10851,49.983009,5.25655,4,17,2.5,4,3.5,4,3.5,"La grange de Juliette, Libin"
112,6837,49.988783,5.743364,4.5,130,4,4.5,4,4,4,"L'Adresse, Bastogne"
113,6842,49.996827,5.718027,4.5,33,2.5,4.5,4.5,4.5,4.5,"Saveurs du sud, Bastogne"
114,6846,49.996903,5.719181,4.5,25,2.5,4.5,4.5,4,3.5,"Le Saint Germain, Bastogne"
115,6866,49.999757,5.714269,3,42,1,3.5,3,4,3,"Cite Wok, Bastogne"
116,6854,50.000084,5.714869,4,14,1,4.5,4.5,4.5,3.5,"Il Vinci, Bastogne"
117,6868,50.000497,5.715299,3,14,2.5,3.5,3.5,3.5,4,"Patesserie Arnould, Bastogne"
118,6838,50.000497,5.715299,4,113,2.5,4.5,4.5,4,4,"Le Nuts, Bastogne"
119,6862,50.000497,5.715299,3.5,14,1,4,3,4,3.5,"Patisserie Melba, Bastogne"
120,6864,50.001105,5.714605,4,16,1,3.5,4,4,3.5,"La Cappadoce, Bastogne"
121,6843,50.00118,5.715361,4,88,2.5,4,4,4,4,"Le 1900, Bastogne"
122,6852,50.001183,5.7147,4,55,2.5,4,4,4,4,"L'Adriatique 2, Bastogne"
123,6835,50.001209,5.714732,4.5,90,2.5,4.5,4,4,4,"Completement Toque, Bastogne"
124,6840,50.001216,5.716162,4,102,2.5,4,4,4,4.5,"Bistro Leo, Bastogne"
125,6861,50.001235,5.714763,3,84,1,3,3.5,3,3,"Le Maxime, Bastogne"
126,6844,50.001242,5.715214,4.5,14,9,4,4.5,4,NA,"Japon's Sati, Bastogne"
127,6847,50.001287,5.714827,4,28,2.5,4,4,3.5,NA,"Mac Square, Bastogne"
128,6869,50.001287,5.714827,2.5,47,2.5,3,3,2.5,3.5,"Le Palace, Bastogne"
129,6859,50.001313,5.714858,3.5,33,2.5,3.5,4,3.5,3.5,"La Fondue Gourmande, Bastogne"
130,6867,50.001339,5.71489,3,34,2.5,3,3.5,3,2,"Lio's Grill, Bastogne"
131,6865,50.001582,5.713521,3.5,13,2.5,4,4,4,3,"A la Table d'Asie, Bastogne"
132,6834,50.001971,5.715864,4.5,79,2.5,4.5,4.5,4.5,4.5,"brasserie lamborelle.be, Bastogne"
133,6857,50.002359,5.717552,4.5,12,9,4,4.5,4,5,"Le Dim's, Bastogne"
134,6851,50.002898,5.718198,4,36,1,4,4,4,3,"L'Autre Chapelle, Bastogne"
135,6839,50.003162,5.718532,4.5,66,2.5,4.5,4.5,4.5,4.5,"Au Soleil De Tunisie, Bastogne"
136,6858,50.004254,5.699703,4,14,9,3.5,4,3.5,3.5,"Le Melba Tea Room, Bastogne"
137,6841,50.004259,5.720143,4,87,2.5,4,4,4,NA,"Alla Dolce Vita, Bastogne"
138,6849,50.004746,5.720804,4.5,12,2.5,5,4.5,5,NA,"Le 222 Bar a Vin, Bastogne"
139,6870,50.006021,5.721132,3.5,26,1,3.5,3.5,3,1.5,"Au Petit Creux, Bastogne"
140,10071,50.00721,5.159866,4,177,2.5,4,4,4,3.5,"Le Fournil - Brasserie Restaurant, Redu"
141,10073,50.007697,5.160921,4,53,2.5,4,4.5,4.5,4.5,"Au clocher, Redu"
142,10072,50.007774,5.16102,4.5,35,2.5,4.5,4.5,4.5,NA,"il Forno - Brasserie Restaurant Pizzas, Redu"
143,6856,50.016322,5.725621,4.5,23,4,4.5,4.5,4,4,"Au Coin Fleuri, Bastogne"
144,8271,50.021352,4.373381,4.5,71,4,4.5,4.5,4.5,4.5,"L'attrape Loup, Chimay"
145,10929,50.022841,5.117004,3.5,27,4,3.5,3.5,3,3.5,moulin de Daverdisse
146,8993,50.025294,5.37373,4,71,2.5,4.5,4.5,4.5,4,"La table des champions, Saint-Hubert"
147,9001,50.025299,5.373712,2.5,33,2.5,3,2.5,2.5,NA,"Le Saint Hubert Restaurant Tavern, Saint-Hubert"
148,8995,50.026188,5.373846,4,62,2.5,4.5,4,4,3.5,"Le basilic, Saint-Hubert"
149,8998,50.028399,5.372342,4,18,9,4,4.5,4.5,4,"Le Coin Gourmand, Saint-Hubert"
150,10768,50.03281,4.923866,4.5,32,2.5,4.5,4.5,4.5,4,"Aux Saveurs D'Ardenne, Vencimont"
151,10769,50.03294,4.924412,4,33,4,4.5,4.5,4,4.5,"Le Barbouillon, Vencimont"
152,8273,50.047268,4.313627,4.5,82,2.5,4,4.5,4,4,"La Charlotte, Chimay"
153,8281,50.047268,4.313627,3.5,11,2.5,3.5,3.5,3,NA,"Xi Wou, Chimay"
154,8278,50.047583,4.316455,4,35,2.5,4,4,4,4,"Le Casino, Chimay"
155,8279,50.048656,4.314258,3.5,54,2.5,4,4,3.5,3.5,"Le Grand Cafe, Chimay"
156,8275,50.048676,4.314311,4,80,2.5,4,4,3.5,4,"La Chimassiette, Chimay"
157,8269,50.049264,4.313665,5,63,4,5,5,4.5,4,"Loriginal, Chimay"
158,8947,50.052363,4.496503,4,63,2.5,4,4,4.5,4.5,"L'Absolu, Couvin"
159,8946,50.052671,4.49441,4,27,2.5,4,4,4,3.5,"Brasserie Jeanne, Couvin"
160,8943,50.052718,4.495084,4.5,27,9,4.5,4.5,4.5,4,"La Table de Nanou, Couvin"
161,8949,50.05291,4.493098,4,38,2.5,4,4,4,3.5,"Restaurant Casa Verde, Couvin"
162,8941,50.053712,4.493094,4.5,45,4,4.5,4.5,4,4,"Nulle part Ailleurs, Couvin"
163,8289,50.062367,4.983455,4,13,1,4,4.5,4.5,NA,"Le Belvedere, Beauraing"
164,11048,50.063838,4.378054,4.5,95,2.5,4.5,4.5,4.5,4.5,"L'eau Blanche, Lompret"
165,11105,50.073606,5.303864,4,25,2.5,4,3.5,4,4,"L'auberge du Sabotier, Awenne"
166,10306,50.074084,4.549313,4,19,9,4.5,4.5,4.5,4.5,"Chez Akim, Nismes"
167,10305,50.075119,4.547302,4,56,2.5,4,4,4,4,"La Bonne Auberge, Nismes"
168,10595,50.077478,5.11432,3.5,25,2.5,3.5,3,3.5,2.5,"La Truite D'argent, Wellin"
169,10594,50.081966,5.113613,4,25,2.5,4,3.5,4,3.5,"Le Relais de la Patache, Wellin"
170,10593,50.081966,5.113613,4,28,2.5,4.5,4.5,4.5,4.5,"L'Atelier des Sens, Wellin"
171,8996,50.084081,5.340594,4,31,9,4.5,4,4.5,4.5,"Al Pele, Saint-Hubert"
172,8277,50.085017,4.293276,4,41,2.5,4,3.5,4,4,"Beauchamp, Chimay"
173,10896,50.091393,4.521076,4,28,2.5,4,4,4,3,"La Tierache, Mariembourg"
174,8286,50.108812,4.957249,4,26,9,4,4,4,NA,"Restaurant Dolce Vita, Beauraing"
175,8287,50.108835,4.9573,4,26,9,4,4,4,NA,"Brasserie du Biran, Beauraing"
176,8283,50.109183,4.962822,4.5,75,4,4.5,4.5,4.5,4.5,"Le Pont des Anges, Beauraing"
177,8284,50.11043,4.96487,4,65,2.5,4,4,4,4,"Le Pelerin, Beauraing"
178,8288,50.110524,4.95521,4.5,11,9,4.5,4.5,4,NA,"patisserie Collin, Beauraing"
179,8502,50.11625,5.816707,3.5,13,2.5,3.5,3,3.5,3,"LE RELAX, Houffalize"
180,8290,50.122418,4.891794,3.5,13,9,3.5,3.5,3,NA,"La Halte des Saveurs, Beauraing"
181,9872,50.124292,5.188989,4,45,2.5,4.5,3.5,4,4.5,"Stradella, Han-sur-Lesse"
182,9877,50.124736,5.189655,2,43,2.5,2.5,2,2,2.5,"O'Gourm'Han, Han-sur-Lesse"
183,9876,50.124778,5.189142,3,35,1,3,3.5,3.5,4,"Brasserie le Central, Han-sur-Lesse"
184,9870,50.124869,5.189135,4,23,2.5,4.5,4.5,4.5,NA,"L'Hexagone, Han-sur-Lesse"
185,9874,50.125236,5.187286,3.5,15,1,3,4,3.5,NA,"Fakkel - Muriel Friterie et Snack, Han-sur-Lesse"
186,9875,50.125673,5.188253,3.5,32,2.5,3.5,3,3,NA,"Bar/Restaurant Van Cocoon Hotel Grenier des Grottes, Han-sur-Lesse"
187,10742,50.12729,5.340162,4.5,47,4,5,5,4.5,4.5,"Le Beau Sejour, Nassogne"
188,10741,50.128624,5.340408,4.5,96,2.5,4.5,4.5,4.5,4.5,"Le Barathym, Nassogne"
189,8499,50.131356,5.789814,4,11,1,4,4.5,4.5,4,"Alta Falisia, Houffalize"
190,8501,50.131533,5.78975,3.5,47,2.5,3.5,3,3.5,3,"Chez l'Italien, Houffalize"
191,8495,50.131981,5.796997,4,28,2.5,3.5,4,4,NA,Vayamundo Houffalize
192,8498,50.132254,5.790086,4,28,1,4,3.5,3.5,3.5,"Comme Chez Moi, Houffalize"
193,8493,50.132287,5.789475,4,38,2.5,3.5,3.5,3.5,3,"Grillade ardennaise, Houffalize"
194,8494,50.132337,5.790454,4,73,2.5,3.5,4,3.5,3.5,"Hotel du Commerce, Houffalize"
195,10604,50.13289,4.141739,4,51,2.5,4,4,4,4.5,"Au Petit Mayeur, Sivry"
196,8490,50.137031,5.787866,4.5,132,4,4.5,4,4,4,"La Fleur de Thym, Houffalize"
197,9048,50.150508,4.505368,3.5,15,9,3.5,3.5,3.5,2.5,"Le royal grill, Philippeville"
198,10984,50.150768,5.743767,3.5,64,2.5,3.5,3.5,3.5,4,"La grange, Achouffe"
199,10983,50.150768,5.743767,3.5,42,2.5,4,4,4,NA,"Taverne de la Chouffe, Achouffe"
200,8497,50.150768,5.743767,4,17,2.5,4,4.5,3.5,2.5,"L'Espine, Wibrin"
201,10411,50.156344,5.66493,4,13,9,3.5,4.5,3.5,2,"Les 5 Ourthes, Nadrin"
202,10410,50.157448,5.679997,4,37,4,4.5,4,4,4,"La Plume D'Oie, Nadrin"
203,10743,50.162192,5.406037,4.5,16,2.5,4.5,5,5,4.5,"Restaurant Le Monument, Nassogne"
204,8500,50.164527,5.724277,4,17,2.5,4,4.5,4,NA,"Le Relais de D'artagnan, Wibrin"
205,10300,50.167231,4.327491,2.5,21,1,3,1.5,3.5,NA,"Iwago 66, Froidchapelle"
206,9685,50.170517,4.411094,4,42,2.5,4.5,4.5,4.5,4,le relais de Cerfontaine
207,7750,50.174757,5.582045,4,24,2.5,4,4,3.5,4,"La Claire Fontaine, La Roche-en-Ardenne"
208,7754,50.179257,5.576175,4,16,2.5,4.5,4,4.5,4,"Du Midi, La Roche-en-Ardenne"
209,7748,50.179456,5.66876,4.5,12,1,4.5,4.5,4.5,5,"le chasselet, La Roche-en-Ardenne"
210,7742,50.18028,5.576629,4,148,2.5,4,4,4,4,"Signe Jeanne, La Roche-en-Ardenne"
211,7755,50.180485,5.576039,4,13,9,4,4,4.5,3.5,"La roche en ardenne, La Roche-en-Ardenne"
212,7753,50.180652,5.575974,3.5,36,1,4,4,4,4,"La Chine, La Roche-en-Ardenne"
213,7745,50.180812,5.577099,4,47,2.5,4.5,4,4.5,4,"Le Quai Son, La Roche-en-Ardenne"
214,7746,50.181291,5.576202,4,60,2.5,4,4,4,3,"L'Apero, La Roche-en-Ardenne"
215,7756,50.181553,5.575283,3.5,30,2.5,4,4,3.5,4.5,"Le Sainte Maxime, La Roche-en-Ardenne"
216,7743,50.181693,5.57526,4.5,41,1,4.5,4.5,4.5,4,"Maison Bouillon et Fils, La Roche-en-Ardenne"
217,7759,50.182082,5.575387,3.5,21,1,3,3,3,2.5,"L'Espadon, La Roche-en-Ardenne"
218,7747,50.182436,5.575546,4.5,12,2.5,5,4.5,4.5,NA,"Le Saint-Michel, La Roche-en-Ardenne"
219,10001,50.182626,4.822744,3.5,11,9,3.5,4,4,4,"Le Palais d'Ete, Hastiere-Lavaux"
220,4242,50.1846647,4.8235884,4,14,9,4.5,4,4.5,4.5,"Le Bord'eaux, Namur"
221,11099,50.190983,4.831513,4,21,2.5,4,4.5,4,4,"La Bonne Heure, Blaimont"
222,9686,50.191063,4.439854,4.5,17,2.5,4.5,4.5,4.5,NA,Relais de Soumoy Restaurant
223,9050,50.196052,4.541759,3,12,9,3.5,2.5,4,3,"Palais de Chine, Philippeville"
224,9043,50.196075,4.540394,4,63,9,4.5,4,4,3.5,"Le Phenicien, Philippeville"
225,9045,50.196142,4.576789,4.5,25,2.5,4.5,4,4,3.5,"La Cote d'Or, Philippeville"
226,11110,50.197023,5.174725,5,11,2.5,5,5,4.5,NA,"L'Estaminet du Pelerin, Foy"
227,9046,50.197452,4.545593,4.5,18,9,4.5,4.5,4,NA,"IL Gusto Giusto, Philippeville"
228,9049,50.199103,4.549086,3.5,86,2.5,4,3.5,4,3.5,"Le Mistral, Philippeville"
229,6453,50.20339,4.888892,4.5,42,4,4.5,4.5,4.5,4.5,"Auberge des Cretes Restaurant, Dinant"
230,11009,50.203953,4.865311,4.5,14,2.5,4.5,4.5,4.5,NA,"Villa 1900, Waulsort"
231,11010,50.204227,4.866737,4.5,18,2.5,5,4.5,4.5,5,Le Vieux Waulsort
232,10026,50.210926,4.966689,3,16,2.5,3.5,3,3.5,4.5,"Auberge de la Lesse, Houyet"
233,7376,50.211737,5.36583,5,72,4,5,4.5,4.5,4.5,"Les 4 Saisons, Marche-en-Famenne"
234,10852,50.215113,6.079372,4.5,13,2.5,5,5,4.5,3.5,"Le Jardin Restaurant, Burg-Reuland"
235,10298,50.215227,4.373779,4,25,2.5,4.5,3.5,3.5,3,"La Ruchette, Froidchapelle"
236,9998,50.216764,4.823992,4.5,58,2.5,4.5,4.5,4.5,4.5,"Prune des Bois, Hastiere-Lavaux"
237,9902,50.217548,4.243353,4.5,124,4,5,4.5,4.5,4.5,"Le Prieure Saint- Gery, Beaumont"
238,10000,50.217958,4.824619,4,20,2.5,4,4,4,3.5,"Le Campagnard, Hastiere-Lavaux"
239,10954,50.218243,4.957921,4.5,51,2.5,4.5,4.5,4.5,4,"Restaurant les Belles Gourmandes, Furfooz"
240,9999,50.218268,4.824435,4.5,27,4,4,4,4,3.5,"La Meunerie, Hastiere-Lavaux"
241,7387,50.218676,5.349928,4.5,66,4,4.5,4,4,4,"La Gloriette, Marche-en-Famenne"
242,7392,50.2194,5.346715,3.5,85,2.5,4,3.5,3.5,4,"Le Manoir, Marche-en-Famenne"
243,7382,50.224828,5.344509,4.5,114,2.5,4.5,4.5,4,4,"l'ineviTable, Marche-en-Famenne"
244,7403,50.22487,5.3445,3,15,9,3,4,3.5,2.5,"Yangtse, Marche-en-Famenne"
245,7381,50.225024,5.343308,4,215,2.5,4,4,3.5,4,"Les Jardins de Bangkok, Marche-en-Famenne"
246,7388,50.225531,5.345141,4,51,1,4,4,4,5,"MandaBar, Marche-en-Famenne"
247,7379,50.225684,5.34433,4.5,82,2.5,4.5,4.5,4.5,3.5,"Le Comptoir Gourmand, Marche-en-Famenne"
248,7389,50.225686,5.344333,4,46,1,4,4,4,3.5,"Delices d'Asie, Marche-en-Famenne"
249,7377,50.225724,5.345615,4.5,233,2.5,4.5,4.5,4,4,"L'effet Boeuf, Marche-en-Famenne"
250,7383,50.226863,5.346061,4.5,45,2.5,4.5,4.5,4.5,4.5,"La Medina, Marche-en-Famenne"
251,7391,50.227628,5.344368,4.5,11,9,5,5,5,5,"Saveurs D'ici Et D'ailleurs, Marche-en-Famenne"
252,7396,50.227675,5.341503,3.5,55,2.5,3.5,4,4,3,"San Marino, Marche-en-Famenne"
253,7393,50.227738,5.34366,4,13,1,4.5,4.5,4.5,3,"Les Glaces de Lalie, Marche-en-Famenne"
254,7395,50.22789,5.341938,3.5,40,2.5,3,3.5,3,3.5,"Le Palais d'Ete, Marche-en-Famenne"
255,7390,50.227895,5.344209,3.5,74,2.5,4,3.5,4,3.5,"La Vita E Bella, Marche-en-Famenne"
256,7399,50.228181,5.344359,4,18,2.5,4,4.5,4.5,NA,"Pidezza, Marche-en-Famenne"
257,10025,50.229398,5.007583,4,25,2.5,4.5,4,4,4,"Le Val Joli, Houyet"
258,10024,50.229591,5.008061,4.5,68,2.5,4.5,4.5,4.5,4.5,"Le Saint-Hadelin, Houyet"
259,10003,50.232045,5.617362,4,14,9,4,4,3.5,4,"Brasserie du Parc Chlorophylle, Manhay"
260,7394,50.233432,5.311307,4.5,12,9,4,4.5,4,4,"Les Faveurs du Ciel, Marche-en-Famenne"
261,10005,50.234395,5.621936,4,17,2.5,4,4.5,4,NA,"Le Miroir, Manhay"
262,7400,50.234662,5.30474,3,28,9,3,3.5,3,NA,"Le Saint-Loup, Marche-en-Famenne"
263,7397,50.235327,5.344562,3.5,15,9,4,4,4,NA,"Lunch Garden, Marche-en-Famenne"
264,9905,50.237639,4.234831,4,12,9,3.5,4,3.5,NA,"Le Picotin, Beaumont"
265,6441,50.237765,4.907292,4.5,135,2.5,4.5,4.5,4.5,4.5,"Tout Simplement, Dinant"
266,10027,50.239953,5.01576,3,27,2.5,2.5,3.5,3,NA,"Le Tank, Houyet"
267,4201,50.2400238,4.7607986,4,28,9,4.5,4,4,4,"Le Temps d'Un Instant, Namur"
268,10535,50.24263,5.499108,4.5,31,9,4.5,4,4.5,4,"L. Imprevu, Rendeux"
269,10533,50.246962,5.495324,4.5,91,4,4.5,4.5,4.5,4.5,"Moulin de hamoul, Rendeux"
270,10536,50.246962,5.495324,3.5,11,2.5,4,3.5,3.5,NA,"Li P'tit Creton, Rendeux"
271,9629,50.247725,5.43509,4.5,159,4,4.5,4,4,4,"Les Pieds Dans le Plat, Hotton"
272,8221,50.25,5.753611,2.5,16,2.5,2.5,2.5,2.5,NA,"Baraque Fraiture, Vielsalm"
273,10441,50.250441,4.605998,4,15,9,4,4,4.5,NA,"Wok Imperial Ou Imperial Wok, Florennes"
274,9900,50.251371,4.431111,3.5,22,2.5,4,4.5,4,5,"Le Basilic, Walcourt"
275,8214,50.251985,5.793168,4.5,58,2.5,4.5,4.5,4.5,4,"Le Val D'Hebron, Vielsalm"
276,6445,50.252161,4.917608,4.5,102,2.5,4.5,4.5,4.5,4,"La Table d'Antonio, Dinant"
277,10440,50.25251,4.604718,4.5,24,2.5,5,5,5,4,"Le Moderne, Florennes"
278,6452,50.255304,4.914905,4,87,4,4.5,4,4,4,"Le Jardin de Fiorine, Dinant"
279,6479,50.25558,4.914733,3,16,9,4,3.5,4,4,"Friterie Lemoine Raphael Sprl, Dinant"
280,6443,50.25604,4.916707,4,124,2.5,4.5,4.5,4,4,"Les Amourettes - L'Isle de Grand-Mere, Dinant"
281,6459,50.256069,4.916542,4,41,2.5,4,4,4,4,"Coin a Tapas, Dinant"
282,6475,50.256155,4.913758,3.5,21,1,4,3.5,3.5,2.5,"Les Brasseurs, Dinant"
283,6455,50.257161,4.91516,4.5,29,2.5,4,4.5,4.5,2.5,"La Chine, Dinant"
284,9897,50.257326,4.436944,4.5,66,4,4.5,4,4,4,"Hostellerie Dispa, Walcourt"
285,11085,50.25754,5.49492,3.5,18,2.5,4,4,4,4,"La Grange, Werpin"
286,9903,50.258394,4.22204,4.5,113,2.5,4.5,4,4,4.5,"Beau Mon Grill, Beaumont"
287,6466,50.258465,4.914184,3.5,11,1,4,4,4.5,3,"Les Delices Chinois, Dinant"
288,6471,50.258545,4.912899,3,14,2.5,4,3.5,3.5,NA,"Chez Jo & Jo, Dinant"
289,6458,50.260071,4.909981,4,13,2.5,4,4.5,4.5,NA,"Le Monaco, Dinant"
290,6439,50.260192,4.91024,4.5,91,2.5,4.5,5,4.5,4,"Le Trois, Dinant"
291,6480,50.260338,4.912201,2.5,42,2.5,3,2.5,3,2.5,"Villa Casanova, Dinant"
292,6478,50.260402,4.912173,2.5,13,9,2.5,3.5,3,NA,"Brasserie Din'en Ville, Dinant"
293,6469,50.260738,4.912593,3.5,79,2.5,3.5,3,3.5,3,"La Citadelle, Dinant"
294,6472,50.260932,4.912473,3,14,2.5,4,3.5,4,NA,"Le Saxophone, Dinant"
295,6450,50.261259,4.911625,3.5,327,2.5,3.5,3.5,3.5,4,"Cafe Leffe, Dinant"
296,6462,50.26139,4.91157,5,12,1,4.5,4.5,4.5,NA,"Nono, Dinant"
297,6476,50.261418,4.911336,3,45,2.5,3.5,2.5,3.5,2,"Taormina Pizzeria, Dinant"
298,6447,50.261479,5.012436,4.5,54,1,4.5,4.5,4.5,4.5,"Ivan des Frites, Dinant"
299,6477,50.261758,4.911185,3,16,1,3,2.5,3,NA,"Boulangerie-Patisserie Toussaint, Dinant"
300,6457,50.261867,4.910765,4.5,14,1,4,4,4,5,"Cote Sax, Dinant"
301,6460,50.261942,4.910737,3.5,35,2.5,3.5,3.5,4,2.5,"La Ville de Bruges, Dinant"
302,9635,50.267034,5.44787,3,19,2.5,3,3,3.5,3.5,"La Gibeciere, Hotton"
303,9630,50.267154,5.447318,4,134,2.5,4.5,4.5,4,4,"Le Jacquemart, Hotton"
304,9631,50.267528,5.453452,4,15,2.5,4.5,4.5,4.5,NA,"La Command'Rie, Hotton"
305,9628,50.268639,5.446994,4.5,122,2.5,4.5,4.5,4.5,4.5,"La Carretta, Hotton"
306,6444,50.269359,4.907371,4.5,68,2.5,4.5,4.5,4,4,"Le Confessionnal, Dinant"
307,10739,50.273589,5.542966,4,11,4,4.5,4.5,4.5,5,"L'Affenage Le Restaurant, Erezee"
308,9355,50.279677,6.126748,4,68,2.5,4,4,4,4,"Pip-Margraff, Saint Vith"
309,9358,50.279722,6.130456,4,53,2.5,4.5,4,4.5,4,"An den Linden, Saint Vith"
310,9354,50.280736,6.125881,4.5,85,4,5,4.5,4.5,4.5,"Zur Post, Saint Vith"
311,9356,50.280807,6.12674,4,20,2.5,4.5,4.5,4,4,"Pizzeria Il Vecchio Pozzo, Saint Vith"
312,9360,50.2814,6.125459,4.5,27,2.5,5,4.5,5,4.5,"Le Luxembourg, Saint Vith"
313,9359,50.282367,6.124571,4,14,1,4.5,4.5,4.5,3.5,"Baeckerei & Konditorei Fonk, Saint Vith"
314,8218,50.284691,5.914839,4,15,2.5,4,3.5,3.5,3.5,"Au Gre des Saisons, Vielsalm"
315,8216,50.287319,5.915209,3.5,33,1,3.5,4,3.5,NA,"Ciao Italia, Vielsalm"
316,8212,50.287319,5.915209,4.5,47,2.5,4.5,4.5,4.5,NA,"Les 6 Quarts, Vielsalm"
317,9363,50.28806,6.06973,3.5,12,9,4.5,3.5,4,NA,"Biermuseum / Skihutte, Saint Vith"
318,8210,50.288139,5.91432,4,302,2.5,4,3.5,3.5,4,"Contes de Salme, Vielsalm"
319,10753,50.291191,4.801747,4.5,100,4,4.5,4,4,4,L'artiste de Falaen
320,10738,50.292075,5.535892,4.5,26,2.5,4.5,5,4.5,4.5,"Nomesa, Erezee"
321,10962,50.293319,4.178349,4,21,2.5,4,4.5,4,3,"Le Grand Pre, Hantes-Wiheries"
322,9842,50.295218,4.783521,4.5,32,9,4.5,4.5,4.5,4.5,"Les Montagnards, Anhee"
323,9844,50.300501,4.744542,4,18,9,4.5,4.5,4,4.5,"Les viviers, Anhee"
324,10777,50.304924,4.761012,4,15,1,3.5,3,3.5,NA,"Centre d'accueil Saint Joseph Abbaye de Maredsous, Denee"
325,10801,50.307091,4.116728,4,21,9,4,4,4.5,NA,La Friterie d'Erquelinnes
326,9846,50.308383,4.830677,3.5,11,9,4,4,3.5,NA,"Cafe Italien, Anhee"
327,9839,50.309186,4.818519,4.5,41,9,4.5,4.5,4,4.5,"La O, Anhee"
328,10802,50.312441,4.135001,3.5,21,9,3.5,3.5,3.5,NA,"Chez Jojo, Erquelinnes"
329,9843,50.315865,4.874886,3.5,79,2.5,3.5,3.5,3.5,3.5,"La Brasserie du Moulin, Anhee"
330,9841,50.315865,4.874886,3.5,44,2.5,4,4,4,4,"Le Minotier, Anhee"
331,9847,50.316167,4.873037,3.5,34,2.5,3.5,3.5,3.5,4.5,"Les Jardins de la Molignee, Anhee"
332,9848,50.316167,4.873037,2.5,15,9,3.5,3,3,3,"Aux Jardins de la, Anhee"
333,10236,50.316595,4.902111,4,21,9,4.5,4.5,3.5,NA,"Les Papilles, Yvoir"
334,9840,50.316914,4.842397,4.5,54,2.5,4.5,4.5,4.5,4.5,"Aux Marronniers, Anhee"
335,4151,50.3205993,4.477533,4.5,105,9,4.5,4,4,4.5,"Restaurant Matthias and the Sea, Namur"
336,8824,50.321894,4.387431,4.5,20,9,4.5,4.5,4.5,4,"L'Ham, Ham-sur-Heure"
337,8830,50.321965,4.388224,4.5,15,2.5,5,4.5,4.5,NA,"La Boucherie Du Cuisinier, Ham-sur-Heure-Nalinnes"
338,8825,50.321966,4.388291,4,22,9,4,3.5,3.5,NA,"Aromes a Rome, Ham-sur-Heure-Nalinnes"
339,11016,50.322393,5.006018,4,20,2.5,4,4,4,4,"Le Cheval Blanc, Spontin"
340,8822,50.322573,4.477374,4,125,2.5,4,4,3.5,3.5,"La Brasserie, Nalinnes"
341,10707,50.323191,4.15698,4,20,9,4,4,3.5,4,"La Table Saint-Martin, Merbes-le-Chateau"
342,6722,50.325708,5.531206,4.5,46,2.5,4.5,4.5,4.5,4.5,"Tiesse di Bwes, Durbuy"
343,10597,50.325865,5.530732,4,11,9,4,4,3.5,NA,"Au Milieu de Nulle Part, Weris"
344,10705,50.325978,4.19558,4.5,48,2.5,4.5,4.5,4.5,5,"Le Pre En Bulles, Merbes-le-Chateau"
345,10596,50.326304,5.532023,4,32,2.5,4,4,4,4,"Les Lanternes, Weris"
346,10706,50.326331,4.160685,4.5,23,4,4.5,4.5,4,NA,"La Grange De La Courte, Merbes-le-Chateau"
347,10234,50.326379,4.878625,4.5,39,1,4.5,4,4.5,4,"Da Luca, Yvoir"
348,10555,50.32834,4.655417,4,138,2.5,4.5,4,4,4,"Le Metin, Mettet"
349,8215,50.329103,5.927309,4,38,2.5,4,4,4,4.5,"Le Cabanon, Vielsalm"
350,6721,50.331023,5.390585,4,74,2.5,4,4,4,4,"La Passerelle, Durbuy"
351,8828,50.33174,4.421488,4,21,9,4.5,4,4,4,"Restaurant Les Etangs du Cheneau, Nalinnes"
352,8826,50.332199,4.397854,4.5,28,9,4.5,4,4,4,"Le Hussard, Nalinnes"
353,11134,50.332882,5.06461,4,60,1,4.5,4,4.5,3.5,"L'Instant Gourmand, Natoye"
354,8675,50.335043,4.528861,4,34,2.5,4.5,4.5,4,4,"L'appuntamento, Gerpinnes"
355,8832,50.337754,4.474365,4,22,9,4,4.5,3.5,NA,"L'Annexe, Nalinnes"
356,8831,50.337828,4.474351,4,11,9,4.5,4.5,4.5,NA,"Robin's Cafe, Ham-sur-Heure-Nalinnes"
357,8213,50.337865,5.903143,4.5,72,2.5,4,4,4,4,"Restaurant L'Ecurie, Vielsalm"
358,10767,50.34047,5.155583,4.5,46,9,4.5,4.5,4,NA,La Gare d'Hamois
359,8835,50.341356,4.470904,4,16,9,4,4,4,4,"Detail & Nous, Nalinnes"
360,8827,50.341504,4.471296,4,46,9,4.5,4.5,4,4,"Vin ... rue des ecoles, Nalinnes"
361,8833,50.342309,4.470587,4,28,9,4,4,4,4.5,"Restaurant Annette Et Greg, Nalinnes"
362,6718,50.342935,5.417073,4,94,2.5,4,4,4,4,"LPM Grill, Durbuy"
363,8670,50.343585,4.473304,4.5,95,4,4.5,4,4,3.5,"Le Delice du Jour, Gerpinnes"
364,10512,50.345312,4.85414,3.5,73,2.5,3.5,3.5,3.5,3.5,"Le MoMA, Annevoie-Rouillon"
365,10909,50.345435,5.566241,3.5,176,2.5,3.5,3.5,3.5,4,"La Gargouille, Heyd"
366,9763,50.346715,5.852766,4,15,2.5,3.5,3,4,3,"Ferme Bodson, Trois Ponts"
367,10908,50.346814,5.560683,4.5,64,2.5,4.5,4.5,4.5,4.5,"L'Etable, Heyd"
368,6740,50.34766,5.406105,4.5,12,1,4,3.5,4,4,"Govinda's, Durbuy"
369,10510,50.347751,4.852917,3.5,44,9,3.5,3.5,3.5,2.5,"Le Grilladon, Annevoie-Rouillon"
370,10757,50.348716,4.955289,4,69,4,4.5,4,4,4,"La Toquade, Crupet"
371,6739,50.348955,5.450168,4,12,1,3.5,4,3.5,NA,"La Vieille Demeure, Durbuy"
372,6737,50.349154,5.492104,4,24,2.5,4,3.5,4,2.5,"Restaurant-Pizzeria Il Vecchio Forno, Barvaux"
373,6724,50.350959,5.455432,4.5,144,2.5,4.5,4.5,4.5,4.5,"La Piazza, Durbuy"
374,10235,50.351212,4.876808,4,45,9,4,4.5,4,4,"Au Fil de l'Eau, Yvoir"
375,11144,50.351396,5.454336,5,103,4,5,5,5,NA,"La Table de Manon, Durbuy"
376,6738,50.351472,5.455723,3.5,81,2.5,4,3.5,3.5,3.5,"Jean de Boheme, Durbuy"
377,6749,50.351472,5.455723,2.5,25,1,2,3,2,2.5,"Frit & co, Durbuy"
378,6748,50.351475,5.457098,2.5,209,2.5,2.5,3,2.5,2.5,"Volcano, Durbuy"
379,6719,50.35161,5.456429,4,185,2.5,3.5,4,4,4,"La Brasserie Ardennaise, Durbuy"
380,6725,50.35177,5.455881,4,122,2.5,4,4,4,4,"Vieux Pont, Durbuy"
381,6727,50.351843,5.454756,3.5,244,4,4,3.5,3.5,3.5,"Le Sanglier Des Ardennes, Durbuy"
382,6730,50.351843,5.454756,3.5,119,2.5,3.5,3.5,3.5,3.5,"Brasserie Fred, Durbuy"
383,6715,50.352393,5.457103,4,233,2.5,4,4.5,4,4.5,"La Canette, Durbuy"
384,6711,50.352564,5.457077,4.5,224,4,4.5,4,4,4.5,"Le Clos Des Recollets, Durbuy"
385,6733,50.352581,5.456653,4.5,16,2.5,4.5,4.5,4.5,NA,"L'Incontournable, Durbuy"
386,8823,50.352617,4.412124,4,51,2.5,4.5,4.5,4,4,"Villa Castelli Restaurant, Ham-sur-Heure-Nalinnes"
387,6720,50.352927,5.457044,4,264,2.5,4,4,4,4,"Le Victoria, Durbuy"
388,8194,50.354251,4.859219,4,395,2.5,4,3.5,3.5,3.5,"Les 7 Meuses, Riviere"
389,9762,50.355247,5.922018,4,41,2.5,4,4,4,4,"La Metairie, Trois Ponts"
390,6729,50.356229,5.495514,4.5,28,2.5,4.5,4.5,4.5,3.5,"La Chambre d'Amis, Barvaux"
391,6736,50.357744,5.496542,4,34,2.5,4,4,3,3.5,"Majorelle, Barvaux"
392,8678,50.358666,4.509885,4.5,15,9,4.5,4.5,4.5,4.5,"Le Charb'O Grill, Gerpinnes"
393,10006,50.361498,5.66967,2.5,17,2.5,3,2.5,2.5,3,"Don Diego, Manhay"
394,6743,50.363611,5.437936,3.5,14,9,2.5,3,3,3,"Le Nid D'Hirondelle, Durbuy"
395,8980,50.364383,4.392871,4,207,4,4.5,4,3.5,3.5,"L'Eveil des Sens, Montigny-le-Tilleul"
396,8193,50.365204,4.839561,4.5,295,4,4.5,4.5,4,4,"L'Eau vive, Profondeville"
397,6713,50.365298,5.465483,4.5,163,2.5,4.5,4.5,4.5,4.5,Durbuy O
398,9909,50.366933,3.8433,4,33,2.5,4,4,4,4,"Auberge des Aulnes, Dour"
399,9761,50.371627,5.870895,4.5,24,2.5,4,4,4,4,"Restaurant L'origan, Trois Ponts"
400,10642,50.375988,5.731815,4.5,13,2.5,4.5,4,4.5,4,"La vieille forge, Stoumont"
401,11078,50.376731,6.055474,4,29,4,4,4,3.5,4,"Hotel du Moulin, Ligneuville"
402,8204,50.376732,4.906599,4.5,16,4,4.5,4.5,4.5,4.5,"Les 4 arbres, Lustin"
403,8203,50.377228,4.871701,4.5,14,9,4.5,4.5,4.5,4,"Ratatouille, Profondeville"
404,8672,50.377743,4.470728,4,42,9,4,4,4,4.5,"La Cascade, Gerpinnes"
405,8198,50.378608,4.869816,4,53,2.5,4.5,4,4,4,"Cafe de la Gare, Profondeville"
406,8201,50.378622,4.871629,3.5,98,2.5,4,3.5,3.5,3.5,"La Vallee du Cachemire, Profondeville"
407,8987,50.379136,4.379442,4.5,12,2.5,4,4.5,4.5,4,"Les Enfants Terribles, Montigny-le-Tilleul"
408,8981,50.37952,4.37855,4.5,50,2.5,4.5,4.5,4,4,"Le Bel'lallia, Montigny-le-Tilleul"
409,8209,50.380616,4.867241,3,108,2.5,3.5,2.5,3,3,"Aquaplane, Profondeville"
410,4414,50.38127,4.464723,3.5,41,9,4,4,3.5,3.5,"Gusto Gusto, Charleroi"
411,8207,50.381329,4.866244,4,111,4,3.5,4,3.5,4,"La Cite d'Athenes, Profondeville"
412,4332,50.381465,4.4655814,4,40,9,4,4,4,5,"Sotto il Ponte, Charleroi"
413,9724,50.381787,4.684273,3.5,32,2.5,4,3.5,3.5,3.5,"Le Bambois, Fosses-la-Ville"
414,4302,50.3818006,4.444799,4.5,49,2.5,4.5,4.5,4.5,4,"Le Saint Charles, Charleroi"
415,7854,50.382207,4.173736,4,32,2.5,4,4,4,4,"Le Grain de Sel 2, Binche"
416,10976,50.38262,4.581222,4,66,9,4.5,4.5,4,4,"Les Trois Petits Points, Aiseau-Presles"
417,10917,50.382674,5.250622,4.5,38,9,4.5,4,4,4,"Lou Ferri, Havelange"
418,9462,50.383273,3.723373,4,13,9,4,4,3.5,2,"Place 31, Quievrain"
419,4412,50.38412,4.46632,3,19,9,3,3,3,2.5,"L'Allegria, Charleroi"
420,7846,50.385541,4.212394,4.5,33,2.5,4.5,4.5,4,4.5,"Le Relais de Walhain, Binche"
421,7849,50.386894,4.186898,4,54,4,4.5,4,4,4.5,"Restaurant La Fermette des Pins, Binche"
422,4355,50.3885396,4.4339385,4,17,9,4.5,4.5,4.5,NA,"Le Plaisir de Chez Nous, Charleroi"
423,4345,50.3891957,4.4355926,4,25,9,4,4,4,4.5,"Le Rhodini, Charleroi"
424,8202,50.39023,4.877635,4.5,29,9,4,4.5,4,4.5,"Cuillere, Fourchette Etc, Profondeville"
425,4313,50.390506,4.405384,4,37,9,4,4,4,4,"Ellas, Charleroi"
426,8187,50.390545,5.882876,4,13,2.5,4.5,5,4.5,NA,"Au Sommet de la Cascade, Stavelot"
427,8182,50.391951,5.875878,4.5,11,2.5,4.5,4.5,4.5,NA,"Piccolo Piazza, Stavelot"
428,8188,50.391951,5.875878,3,48,2.5,3,3.5,3,3.5,"Le Val de la Cascade, Stavelot"
429,8184,50.393453,5.928476,4.5,36,4,4.5,4,4,4.5,"O Mal Aime, Stavelot"
430,8179,50.393862,5.929941,4.5,31,2.5,4,4.5,4,3.5,"Au Coin de Ma Bulle, Stavelot"
431,8180,50.394384,5.92961,3.5,138,2.5,4,3.5,3.5,4,"Pizzeria Figaro, Stavelot"
432,8183,50.394482,5.930391,4.5,15,9,4,3.5,4,NA,"Plein Sud, Stavelot"
433,8190,50.394682,5.931595,3,27,2.5,3.5,3.5,3.5,3.5,"L'Auberge Saint-Remacle, Stavelot"
434,8191,50.394682,5.931595,2.5,17,1,3,2.5,3,3.5,"Boulangerie Marechal-Ligot, Stavelot"
435,8178,50.394789,5.931566,4,61,1,4,4,4,4,"Friterie Sebastien, Stavelot"
436,4335,50.3949356,4.4028822,4.5,27,2.5,4,3.5,4,4,"Le Kamiros, Charleroi"
437,9721,50.39523,4.697831,4.5,46,9,4,4,4.5,NA,"Wok Classic, Fosses-la-Ville"
438,11108,50.395636,5.394057,4,43,2.5,4.5,4,4.5,4,"Le Cap des Trois Provinces, Ocquier"
439,4344,50.3956528,4.4427358,4.5,26,2.5,4.5,4.5,4.5,4,"La Rose des Sables, Charleroi"
440,8181,50.395897,5.933942,4,81,2.5,4,3.5,4,4,"Le Loup Gourmand, Stavelot"
441,8185,50.395897,5.933942,3.5,61,2.5,4.5,4,4.5,4,"Pizzeria Le Casino, Stavelot"
442,10407,50.396074,4.310912,4,41,2.5,4,4.5,4,4,"Thai Attitude, Leernes"
443,4304,50.3963338,4.4183711,4,109,4,4.5,4,4,4,"Les 3 petits bouchons, Charleroi"
444,8196,50.396591,4.825789,4.5,65,2.5,4.5,4.5,4.5,4,"La Vache qui Vole, Profondeville"
445,8176,50.397237,5.938385,4.5,77,4,5,4.5,4.5,4.5,"Le Val D'Ambleve, Stavelot"
446,9908,50.397601,3.779529,4,48,1,4.5,3.5,4,4.5,"Cali'fornia Diner, Dour"
447,4361,50.3984774,4.4224358,4,18,2.5,4,3.5,3.5,3,"La Main a la Pate, Charleroi"
448,4390,50.3992863,4.4239028,4,60,2.5,4,3.5,4,3.5,"Luca & Papa, Charleroi"
449,4365,50.3994193,4.3723342,4,18,9,4.5,4,4.5,4.5,"toni et paola, Charleroi"
450,4293,50.3994527,4.4471127,4.5,53,2.5,4.5,4.5,4.5,4.5,"Cousins-Cuisine, Charleroi"
451,7284,50.399773,6.067303,4.5,67,2.5,4.5,4.5,4,4,"Five Points Brasserie Restaurant, Malmedy"
452,8725,50.399878,4.530335,3.5,34,9,4.5,4,4,3.5,"Agadir, Chatelet"
453,4369,50.4001834,4.4526783,3.5,33,9,3.5,3.5,3.5,3.5,"Athenes Plaza, Charleroi"
454,10177,50.402106,5.075172,3.5,51,9,4,3.5,4,4,La Petite Gesves
455,10842,50.40251,5.522469,4,11,2.5,3.5,4,4,4,"La Petite Difference, Sy"
456,7292,50.403893,6.000416,4,42,2.5,4,4,4,4,"Ferme des Bruyeres, Malmedy"
457,9465,50.404125,3.677231,4,22,9,4,4,4,4,"Le Royal, Quievrain"
458,9461,50.404184,3.677534,4.5,13,9,4.5,4.5,4.5,5,"L'Oriental, Quievrain"
459,4354,50.4047218,4.3961844,4,45,2.5,4,4,4,4,"Le creta, Charleroi"
460,8726,50.40475,4.519166,3,37,2.5,3.5,3.5,3.5,3.5,"Aux Saveurs du Sud, Chatelet"
461,10336,50.405076,4.270459,3.5,23,9,3.5,2.5,3.5,3,"Capriccio d'Italia, Anderlues"
462,4389,50.4053416,4.4470294,3.5,30,9,4,4,3.5,3.5,"Version Originale, Charleroi"
463,8883,50.405434,3.899784,4.5,37,9,4.5,4.5,4.5,4,"Le Marco Polo, Frameries"
464,4407,50.4054454,4.4467909,3.5,15,9,4,3.5,3.5,4,"Le juste a cote, Charleroi"
465,8724,50.405776,4.520156,3.5,13,9,4,4,4,3.5,"Wok la Chine, Chatelet"
466,4296,50.4058336,4.4468562,4,124,2.5,4.5,4.5,4,4,"Athena, Charleroi"
467,11136,50.405968,3.961209,4,35,9,4,4,4,4,"Les Delices d'Athenes, Asquillies"
468,4825,50.405988,3.9606872,4,285,2.5,4,4,4,4,"Rancho Grill, Mons"
469,8882,50.406003,3.920656,4.5,71,2.5,4.5,4.5,4,4,"Dolce Grill, Frameries"
470,10335,50.406116,4.283977,4,20,2.5,4,4,3.5,4,"La Villa, Anderlues"
471,9459,50.406299,3.680732,4.5,41,9,5,4.5,4.5,3.5,"Giorgios, Quievrain"
472,10253,50.406397,4.334773,3,15,9,3.5,4,4,4,"Pasta Vino, Fontaine L'Eveque"
473,4363,50.4066631,4.4438197,4,23,1,4,3.5,4,3.5,"La Quille, Charleroi"
474,8889,50.406759,3.893409,3.5,20,9,3.5,3.5,3.5,3.5,"Garibaldi, Frameries"
475,4399,50.4068907,4.442379,3.5,20,9,4,3.5,3.5,4,"L Oasis, Charleroi"
476,10251,50.40695,4.317594,4,51,9,4,3.5,4,3.5,"Le Bergerac, Fontaine L'Eveque"
477,4349,50.4070227,4.4423912,4,33,2.5,4.5,4,4,4,"An-Nam, Charleroi"
478,4308,50.4070508,4.4414234,4.5,57,2.5,4.5,4.5,4,4.5,"Au Provencal, Charleroi"
479,4394,50.4073569,4.444282,3.5,13,9,3.5,3.5,3.5,4,"Le Grand Cafe, Charleroi"
480,4404,50.4073687,4.4440916,3,26,2.5,4,3,3.5,3.5,"Harpers Cafe Bar, Charleroi"
481,4341,50.4076216,4.4397225,4.5,15,9,4.5,4.5,4.5,NA,"Saveurs d'Asie, Charleroi"
482,4359,50.4076949,4.4434271,4,35,2.5,4,4,3.5,3.5,"Cafe Leffe, Charleroi"
483,4328,50.407697,4.4401599,4,43,1,4.5,4,4.5,4,"L'Asia, Charleroi"
484,9463,50.407993,3.683126,4.5,15,9,5,4.5,4.5,5,"Brasserie le Silly, Quievrain"
485,4374,50.4079994,4.4923729,4,14,9,4.5,4.5,4.5,5,"Knossos, Charleroi"
486,4347,50.4080235,4.447536,4,53,2.5,3.5,3.5,3.5,4,"Luxembourg, Charleroi"
487,4287,50.4081036,4.4405249,4.5,107,2.5,4.5,4.5,4,4.5,"Restaurant Au Trou Normand, Charleroi"
488,4311,50.4081483,4.4485719,4.5,36,2.5,4.5,4.5,4.5,4,"MotsaMo, Charleroi"
489,4305,50.408155,4.445574,4.5,31,9,4.5,4.5,4.5,4.5,"Monty Burger Bar, Charleroi"
490,7860,50.408215,4.166284,3.5,18,2.5,4,4,4,4.5,"Brasserie La Binchoise, Binche"
491,4367,50.4084647,4.4392668,4,47,2.5,4,4,4,3.5,"Le Creta, Charleroi"
492,4346,50.4084954,4.4438382,4,31,9,4,4,4,3.5,"Aroma Zen, Charleroi"
493,4391,50.4085001,4.4446271,4,29,2.5,4,3.5,3.5,3.5,"La Thailande, Charleroi"
494,4291,50.4085417,4.4479314,4.5,65,2.5,4.5,4.5,4.5,4,"Delphes, Charleroi"
495,4316,50.4086428,4.441373,4.5,35,2.5,4.5,4.5,4,4,"Le Pain Quotidien, Charleroi"
496,4413,50.4086891,4.4401776,3,20,1,4,4,4,3.5,"Princesse Mathilde, Charleroi"
497,8885,50.408782,3.883304,4,41,9,4.5,4.5,4,4,"L'Assiette au Beurre, Frameries"
498,8887,50.408885,3.896846,4,27,9,4.5,4.5,4,3.5,"Aux Saveurs de Marconi, Frameries"
499,8177,50.409136,5.956977,5,27,9,4.5,4.5,4.5,NA,"L'Epicurieux, Stavelot"
500,4337,50.4092222,4.4399801,4,43,2.5,3.5,4,3.5,3.5,"L'impasse Temps, Charleroi"
501,8888,50.409262,3.880864,4,44,2.5,4,4,4,3.5,"Le Grillardin, Frameries"
502,4327,50.409283,4.439863,4.5,28,2.5,4.5,4,4.5,3.5,"Emozione latina, Charleroi"
503,4402,50.4092983,4.4397983,4,11,9,5,5,4.5,5,"Le Lautrec, Charleroi"
504,7859,50.409299,4.165009,3.5,62,4,4,4,3.5,3.5,"Le Piano de Manon, Binche"
505,4379,50.4093166,4.4397201,4,36,2.5,4,4,3.5,4.5,"Brasserie le Bistro, Charleroi"
506,4329,50.4093173,4.4397175,4.5,19,2.5,4.5,4.5,4.5,4,"Shanghai, Charleroi"
507,8886,50.409383,3.894415,4,25,9,4,4,4,3.5,"Asia, Frameries"
508,4323,50.4095766,4.4369916,4.5,21,9,5,4.5,5,4,"l'APtit, Charleroi"
509,4410,50.4096742,4.4370437,3,29,1,3,2.5,3,2,"Chez Albert, Charleroi"
510,4373,50.4096799,4.4435983,4.5,24,2.5,4.5,4,4.5,NA,"L'Etoile des Nuits, Charleroi"
511,4353,50.4098527,4.4372206,4,27,2.5,4,3.5,3.5,3,"La Digue, Charleroi"
512,4315,50.4099116,4.4378493,4.5,33,2.5,4,4,4,3.5,"Safran Et Cardamome, Charleroi"
513,4338,50.4099567,4.4377288,4.5,26,9,4,4,4,3.5,"La Palmeraie, Charleroi"
514,4392,50.410458,4.4421909,3.5,47,2.5,3.5,3.5,3,3.5,"Michelangelo, Charleroi"
515,4403,50.410485,4.447272,4,16,9,4.5,4.5,4.5,4,"le MAYENCE, Charleroi"
516,4272,50.4105122,4.8804951,3.5,34,1,4,4,4,4.5,Maxi Frites Wepion
517,4317,50.4105413,4.4450773,4.5,51,2.5,4.5,4.5,4,4.5,"2 Fenetres, Charleroi"
518,4416,50.4106474,4.4415933,2.5,39,2.5,3,3,2.5,4.5,"50 s American Diner, Charleroi"
519,7851,50.410687,4.165104,4,24,2.5,4,3.5,3.5,3.5,"Restaurant l'Industrie, Binche"
520,4357,50.4109651,4.3822374,4,18,9,4.5,4,4,4,"Chez Gino et Claudia, Charleroi"
521,8884,50.411055,3.895326,4,25,9,4.5,4,4,4,"Le Lotus Bleu, Frameries"
522,10178,50.41114,5.059358,3.5,34,9,3.5,3,3.5,4,"La Pichelotte, Gesves"
523,7844,50.411146,4.165328,4,59,9,4.5,4.5,4,4,"La Bottega, Binche"
524,4314,50.4112124,4.3817744,4.5,31,9,4.5,4,4,3.5,"Le Bar a Brochettes, Charleroi"
525,10980,50.411226,5.84713,4.5,22,9,4,4,4,NA,"Les Doux Ragots, La Gleize"
526,10979,50.411226,5.84713,4,103,2.5,4,4,4,3.5,"Le Vert de Pommier, La Gleize"
527,7848,50.411572,4.165392,4,45,2.5,4,4,4,3.5,"Le 1974, Binche"
528,8455,50.411575,3.783811,4.5,11,9,5,5,5,NA,"Le Wok d'Or, Boussu"
529,4284,50.4116482,4.4457888,4.5,166,2.5,4.5,4.5,4,4.5,"La bouche des gouts, Charleroi"
530,10189,50.411716,4.952161,3.5,17,9,3.5,3.5,4,3.5,"La Jardiniere, Wierde"
531,7845,50.412118,4.169663,4,34,9,4.5,4.5,4,4,"Cul de Poule, Binche"
532,10186,50.412172,4.951434,5,21,9,5,4.5,5,NA,"Friterie Chez Thib, Wierde"
533,7856,50.412211,4.165964,4,19,9,4.5,4.5,4.5,NA,"Fleur Du Desert, Binche"
534,7861,50.412232,4.167872,3,60,9,3,3.5,3.5,3,"Mille Luce, Binche"
535,7843,50.412233,4.165986,4,178,2.5,4.5,4,4,4,"La Trattoria Pizzeria Ristorante, Binche"
536,7853,50.412247,4.166001,4,26,9,4.5,4.5,4.5,5,"Sakura, Binche"
537,7842,50.412283,4.166038,4.5,108,2.5,4.5,4.5,4.5,4,"Sushi a la vie, Binche"
538,4339,50.4124879,4.4449167,4.5,23,2.5,4,3.5,4,3,"Los Tacos Restaurant, Charleroi"
539,4320,50.4124887,4.4404897,4.5,24,9,4.5,4,4,NA,"Restaurant Chermanne, Charleroi"
540,10023,50.412543,3.86456,5,13,9,5,5,5,4.5,"A la Memoire de, Colfontaine"
541,4125,50.4129155,4.960049,4.5,307,4,4.5,4.5,4,4,"Le Darville, Namur"
542,4371,50.413128,4.4440493,4,11,2.5,4.5,5,4.5,NA,"Les Templiers, Charleroi"
543,7855,50.413316,4.164888,4,39,2.5,4.5,4.5,4.5,4,"Kalamatianos, Binche"
544,11023,50.413555,4.158392,3.5,13,9,3.5,3.5,3,3.5,"Porto Fino, Waudrez"
545,9334,50.413933,6.11429,3.5,62,2.5,4,3.5,3.5,3.5,"Restaurant Le Cyrano, Waimes"
546,4147,50.4142305,4.8803299,4,98,9,4.5,4,4,4,"L'O a la Bouche, Wepion"
547,4286,50.4144498,4.4464028,4.5,208,1,4.5,4.5,4.5,4.5,"Chez Minh, Charleroi"
548,9336,50.415762,6.111812,4,41,2.5,4,4,4,4.5,"Brasserie Flo, Waimes"
549,4366,50.4162849,4.4494559,4.5,11,9,5,4.5,4.5,4,"La Vigneraie, Charleroi"
550,4212,50.416327,4.879212,4,76,1,4,4,4.5,4,"Wok Imperial, Wepion"
551,4245,50.4163984,4.8791834,4,15,9,3.5,4,3.5,4,"Don Cristo, Wepion"
552,4157,50.4167573,4.8789253,4.5,49,9,4.5,5,4.5,4,"Tang's Garden, Wepion"
553,4377,50.4176765,4.457629,4,15,9,4,4,4,4,"Pitta land, Charleroi"
554,4396,50.4176765,4.457629,3,29,2.5,3,3,3.5,3,"Il Duomo - le Dome, Charleroi"
555,4175,50.4188257,4.8850352,4.5,56,2.5,4,4,4,4,"Le 54, Namur"
556,4398,50.4190262,4.4550093,4,43,2.5,4,4,3.5,4,"Al Piccolo Mondo, Charleroi"
557,7285,50.41923,6.050129,4.5,78,2.5,4.5,4,4,4,"A la truite argentee, Malmedy"
558,7291,50.419972,6.064261,4,48,2.5,4.5,4,4,4,"La Bouliniere, Malmedy"
559,4395,50.4210959,4.4388828,5,17,9,5,5,4.5,5,"Le Recommande, Charleroi"
560,4352,50.4212563,4.4492857,4,33,9,4,4,4,4,"L'Alexandrin, Charleroi"
561,7304,50.421765,6.03919,3.5,41,1,3.5,3,4,3,"Le Wok, Malmedy"
562,10641,50.422221,5.750702,4,88,2.5,4,3.5,4,4,"Zabonpres, Stoumont"
563,4356,50.4229115,4.4805238,4.5,15,9,4,4,4,4,"La Grande Muraille, Charleroi"
564,4193,50.423417,4.8739948,3.5,135,2.5,3.5,3.5,3.5,3.5,"Le Lodge, Wepion"
565,4405,50.4240044,4.4860694,3,59,2.5,3,3.5,3,3.5,"COSTA DEL SOL, Charleroi"
566,10316,50.424078,4.626049,3.5,21,9,3,3.5,3,4,"Le Calypso, Falisolle"
567,10314,50.424086,4.622245,4.5,20,9,4.5,4,4,4,"IL Capriccio, Falisolle"
568,11029,50.424491,4.931521,3.5,46,9,4,4,4,4,"Don Dino, Naninne"
569,7847,50.424505,4.114601,4.5,41,9,4.5,4,4,4,"La Porta Nova, Binche"
570,4342,50.4247633,4.4779229,4.5,33,9,4.5,4.5,4.5,4,"La Barca, Charleroi"
571,4146,50.4251854,4.8711452,4,249,2.5,4,4,4,4,"Chez Chen Wepion, Namur"
572,7293,50.425299,6.030787,4,28,9,4.5,4.5,4,4.5,"Soiree a Carthage, Malmedy"
573,10117,50.425422,5.535687,3.5,18,2.5,4,4,4,NA,"Le Clapotis, Hamoir"
574,7300,50.425501,6.029205,3.5,47,2.5,3.5,3.5,4,3,"Le Grill, Malmedy"
575,7306,50.425676,6.029088,2.5,44,2.5,2.5,3,3,1,"La Mamma Mia, Malmedy"
576,7294,50.425676,6.029088,4,66,2.5,4,4,4,4,"Moa, Malmedy"
577,7288,50.425685,6.026642,4,70,2.5,4,4,4,4,"L'Esprit Sain, Malmedy"
578,7296,50.42595,6.028454,4.5,26,9,4.5,4.5,4,4,"Hotel Restaurant Albert 1er, Malmedy"
579,7290,50.42595,6.028454,3.5,210,2.5,4,4,4,4,"A Vi Mam 'di, Malmedy"
580,9882,50.425959,6.207646,3.5,23,2.5,4,4,4,5,"Casa Bella Italia, Butgenbach"
581,7303,50.425976,6.028609,4,26,2.5,4.5,4.5,4,4,"Halmes, Malmedy"
582,9881,50.426,6.20778,4,19,2.5,4.5,4.5,4.5,5,The Pub Butgenbach
583,10118,50.426189,5.534576,4,23,9,4,4,4,4.5,"L'Entre Mets Toi, Hamoir"
584,10116,50.426362,5.533696,4,18,2.5,4,4,4.5,3.5,"Hostellerie de la Poste, Hamoir"
585,7858,50.427013,4.099703,4,27,2.5,4,3.5,4,4,"Le Bercha, Binche"
586,7850,50.427034,4.180447,4,30,9,4,4.5,4,4.5,"Athene, Binche"
587,10315,50.427143,4.623673,4,32,9,4,4,4,4.5,"Le Rif, Falisolle"
588,10122,50.427221,4.756393,4,46,4,4,3.5,4,3.5,"Le Relais Gourmand, Floreffe"
589,4862,50.4273982,3.9982552,4,98,2.5,4,4,3.5,3.5,"Au Bon Accueil, Mons"
590,4891,50.427464,3.998206,3.5,25,2.5,3.5,3.5,3.5,2.5,"La Barriere, Mons"
591,4415,50.4278945,4.4716359,3,11,9,1.5,3,1.5,3,"Il Giardino, Charleroi"
592,4141,50.4279087,4.8673978,4.5,54,9,5,4.5,4.5,5,"Carre d'Herbes, Wepion"
593,10870,50.428695,4.552575,4,37,9,4.5,4,4,4,"Le Socrate, Farciennes"
594,10885,50.429253,3.739634,4,48,2.5,4,4.5,4,4,"Restaurant Logis Auberge le XIX, Thulin"
595,8456,50.429371,3.792577,4.5,14,9,4.5,4.5,4.5,NA,"La Vera Pizza, Boussu"
596,4309,50.4301371,4.4601741,4,74,2.5,4.5,4,4.5,3.5,"L'Entre-Cotes, Charleroi"
597,4925,50.430892,3.958831,3.5,35,9,4,3.5,3.5,4,"chez M'biau & M'belle, Mons"
598,4191,50.4311142,4.8645425,4,39,9,4.5,4,4,2.5,"Il Desiderio, Wepion"
599,4362,50.4313169,4.5051067,4.5,15,9,4.5,4.5,4.5,4.5,"Patati Patata, Charleroi"
600,9819,50.432464,4.611136,4,11,9,4,4,4,3,"Le Lola, Sambreville"
601,8462,50.432752,3.809169,3,21,9,3,3,3,3,"City Wok, Boussu"
602,8460,50.432936,3.827759,4,19,2.5,3.5,3.5,3,3.5,"Fujiya, Boussu"
603,4160,50.4333095,4.9181783,4,99,2.5,4.5,4,4,4,"Comptoir de l'Eau Vive, Namur"
604,8459,50.433669,3.813453,3.5,42,2.5,4,3.5,3.5,3,"Epoca Del Sole, Boussu"
605,4821,50.4337393,3.9555004,4.5,143,2.5,4.5,4.5,4.5,4.5,"La Bergerie, Mons"
606,9820,50.434444,4.607988,3.5,24,2.5,4,3.5,4,NA,"La Villa Du Dragon, Sambreville"
607,8461,50.43495,3.837243,3.5,19,2.5,3.5,3.5,3,3,"La Brasserie du Grand Hornu, Boussu"
608,4937,50.434975,4.021762,4,15,9,4,4,3.5,NA,"Il Etait 1X, Mons"
609,11063,50.435891,5.006088,4.5,19,4,4.5,4.5,4.5,NA,"Les Amis De Patrick, Faulx-les-Tombes"
610,10190,50.435906,4.914684,3.5,11,9,4,4,4,4,"L'Orient, Wierde"
611,9326,50.436235,4.628755,4,21,9,4,3.5,3.5,NA,"Ital-Gamma, Auvelais"
612,10807,50.436833,3.925827,3.5,12,9,4,4,4,4,"Liang's Garden, Cuesmes"
613,10806,50.436974,3.926202,4,45,2.5,4,4,4,4,"Le Vulcano, Cuesmes"
614,9328,50.437478,6.141258,4.5,143,4,4.5,4.5,4.5,4.5,"La Menuiserie de Champagne, Waimes"
615,4140,50.4376324,4.8642503,4,219,4,4.5,4,4,4,"La Plage d'Amee, Namur"
616,10821,50.437663,5.464722,4,63,2.5,4,4.5,4,3.5,"Restaurant Carpe Diem, Ouffet"
617,8452,50.438241,3.79729,4,55,2.5,4,4,4,3.5,"Le Minaret, Boussu"
618,10619,50.438646,5.122393,4.5,45,2.5,4.5,4.5,4.5,4,"Le 64, Ohey"
619,4827,50.4389998,4.0115869,4.5,95,4,4.5,4.5,4,4.5,"Maxens, Mons"
620,8374,50.439048,4.503285,3.5,50,2.5,3.5,3.5,3.5,3.5,"Le Saint Clou, Fleurus"
621,8458,50.439499,3.841248,4,55,1,4.5,4.5,4.5,3.5,"Wok D'asie, Boussu"
622,8295,50.43964,5.667354,4.5,51,2.5,4.5,4,4,5,"FlambantBoeuf, Harze"
623,10162,50.439653,3.841987,3.5,16,1,4,4.5,4,NA,"Le Palais du Bohneur, Quaregnon"
624,4285,50.4397395,4.4380642,4.5,96,9,4.5,4.5,4,4,"Portus Cale, Charleroi"
625,10161,50.439753,3.842465,3.5,20,9,3.5,3.5,4,NA,"Wok King Garden, Quaregnon"
626,4818,50.4399056,3.9456484,4.5,253,2.5,4.5,4,4.5,4,"Il Becco Sur la Cornice, Mons"
627,9818,50.440109,4.631581,4,18,9,4.5,4.5,5,4.5,"La Chine imperiale, Sambreville"
628,4843,50.4402502,4.0098073,4,110,2.5,4,4,4,3.5,"Bella Venezia, Mons"
629,8304,50.440533,5.667122,3.5,54,2.5,3.5,3.5,3,3.5,"la p'tite auberge-chateau de Harze, Aywaille"
630,10121,50.440675,4.786832,4,111,2.5,4,3.5,3.5,3.5,"La Romance, Floreffe"
631,4183,50.4410581,4.9063201,4,42,2.5,4.5,4,4,4.5,"Epices et Nous, Namur"
632,4375,50.4413431,4.4566427,4,15,9,4,4.5,4.5,4,"L'Y, Charleroi"
633,4324,50.4417818,4.396498,4.5,25,1,5,4.5,5,5,"Viale Montaperto, Charleroi"
634,10620,50.442421,5.120427,4,21,9,4,4.5,4,NA,"Pizzeria Da Mario, Ohey"
635,10160,50.442683,3.864946,4.5,28,2.5,4.5,4.5,4,4,"Les Balkans, Quaregnon"
636,10124,50.443506,4.773495,3.5,20,9,3.5,3,3.5,NA,"11 S'y Sent Bien, Floreffe"
637,8898,50.443962,3.820834,3.5,39,9,3.5,3.5,3.5,3.5,"La Belle Epoque, Saint-Ghislain"
638,4904,50.444113,4.001858,4.5,15,2.5,4,4.5,4,4.5,"La villa d'Athenes, Mons"
639,4161,50.4448109,4.9005316,4,65,2.5,4,4.5,3.5,4.5,"Wine and More by Agathopede, Namur"
640,4124,50.4448961,4.8538282,4.5,171,4,4.5,4.5,4.5,4.5,"Attablez-vous, Namur"
641,4386,50.4451849,4.4304793,3.5,11,9,4,3.5,3,3.5,"L'Azzurro, Charleroi"
642,9323,50.445533,4.632406,4,45,2.5,4.5,4,4,4.5,"Chez le Capitaine, Auvelais"
643,10871,50.446003,4.536291,4.5,20,9,4,4,4,4,"Cote Sud, Farciennes"
644,7295,50.446051,6.032431,4,50,2.5,4,3.5,4,4,"Restaurant le Marie-Catherine, Malmedy"
645,4912,50.446119,3.954926,4.5,16,9,4.5,4,4.5,4.5,"Delice D'asie, Mons"
646,4848,50.4462681,3.8728546,4,44,2.5,4,4,4.5,3.5,"Da Leandro, Mons"
647,9333,50.446522,6.124177,4.5,15,4,4,4.5,3,5,"Hotel des Bains & Wellness, Robertville"
648,4872,50.4474921,3.9711825,3.5,109,2.5,4,4,3.5,3.5,"Le Vieux Puits, Mons"
649,8305,50.447949,5.796385,4,31,9,4,4,3.5,4,"Ville-O-Bois, Aywaille"
650,4917,50.447958,3.948672,4,39,2.5,4,3.5,4,4,"Les enfants gates, Mons"
651,9321,50.448145,4.646734,4,35,9,4.5,4.5,4,4,"Le Sud, Auvelais"
652,4942,50.448323,3.903288,3,19,9,3,3.5,3.5,3,"Lunch Garden, Mons"
653,8895,50.448353,3.819955,4,28,9,4,4,4,4,"Pizzeria de L'abbaye, Saint-Ghislain"
654,4860,50.4483609,3.8919309,4.5,34,9,4.5,5,4.5,4.5,"La Chine, Mons"
655,8894,50.448456,3.819989,4.5,28,2.5,4.5,4,4.5,4,"La Table du Mandarin, Saint-Ghislain"
656,4887,50.448479,3.962305,4,23,1,4,4,4,3.5,"Wok Wu, Mons"
657,9322,50.448499,4.645101,4,46,9,4,4.5,4,4,"La Nuova Idea, Auvelais"
658,9324,50.448546,4.63259,4.5,18,2.5,4.5,4,4.5,3.5,"Aux bonheurs d'Asie, Auvelais"
659,8375,50.448841,4.521232,3,24,1,4,3,3,1,"Gelatissimo, Fleurus"
660,4928,50.44896,3.949156,4,12,9,4.5,4.5,4.5,4,"Ha Long, Mons"
661,4940,50.449241,3.949283,3,18,1,3,3,3.5,3,"Snack du Lido, Mons"
662,9325,50.449482,4.632372,4,23,9,3.5,4,4,3.5,"La -Fontana, Auvelais"
663,8897,50.449844,3.817333,4,18,4,4,4,4.5,4,"Une Histoire de Gouts, Saint-Ghislain"
664,4930,50.450063,3.951471,3.5,12,9,3.5,3.5,3,NA,"Le Bravo, Mons"
665,4295,50.4506677,4.4349098,4,120,2.5,4,4,4,3.5,"Sel Et Poivre, Charleroi"
666,4874,50.4506733,3.9541922,3.5,93,2.5,4,4,3.5,3.5,"La Madeleine, Mons"
667,4868,50.4506961,3.9494281,4,37,1,4,4.5,4.5,4.5,"NEW CHINA, Mons"
668,4830,50.4508301,3.9517189,4,215,2.5,4,4,3.5,4,"Dream, Mons"
669,4384,50.450928,4.4716062,4,16,1,4,3.5,4.5,4,"L'Azzurro, Charleroi"
670,4895,50.450988,3.948432,4.5,13,2.5,4,4.5,4.5,4.5,"Le Pekin, Mons"
671,4824,50.4513552,3.9566199,4.5,113,1,4.5,4.5,4.5,4.5,"Cocotte, Mons"
672,4922,50.451904,3.978379,3.5,89,2.5,3.5,4,3.5,3.5,"Chez Leon 1893, Mons"
673,4929,50.45191,3.957354,3.5,18,9,4,4,4,4.5,"Spizzico, Mons"
674,10678,50.451991,5.284509,3,22,1,3,3,3,3.5,"Hotel des Touristes, Modave"
675,4834,50.4520689,3.9510255,4,169,2.5,4,4,4,3.5,"Le Bistro de Jean-Phi, Mons"
676,4850,50.4520784,3.9516591,4.5,37,2.5,4,4,4,4.5,"Le 44 Rue des Fripiers, Mons"
677,4839,50.4520874,3.9510885,5,39,1,5,4.5,4.5,4.5,"Mimolette Cacahuete, Mons"
678,4817,50.4521701,3.9504881,4.5,117,2.5,4.5,4.5,4.5,4.5,"Le Pastissou, Mons"
679,4823,50.4524062,3.9519014,4,368,2.5,4,3.5,4,4,"Boule De Bleu, Mons"
680,4232,50.4525304,4.7667451,4,22,9,4,4,4,3,"le mas des cygales, Namur"
681,4885,50.452566,3.952287,4.5,13,1,4.5,4.5,4.5,NA,"Burger Box, Mons"
682,4856,50.4526573,3.9519653,4.5,80,2.5,4.5,5,4.5,4.5,"A la Bonne Heure, Mons"
683,4894,50.452688,3.952014,4,15,2.5,4,4,3.5,NA,"Al Bacio, Mons"
684,4815,50.4527401,3.9520156,4.5,247,2.5,4.5,4.5,4,4,"L'Envers, Mons"
685,4816,50.4528452,3.9520183,5,64,1,4.5,5,4.5,NA,MoMA Coffee Mons
686,4857,50.4528627,3.9520188,4.5,48,4,4.5,4.5,4,4,"La cinquieme saison, Mons"
687,4890,50.452863,3.952019,3.5,68,2.5,4,3,3.5,4,"Citizen Fox, Mons"
688,10520,50.453071,4.658417,4.5,34,9,4.5,4.5,4,4.5,"Le Saloon, Jemeppe-sur-Sambre"
689,4920,50.453189,3.968543,3.5,13,9,4,3.5,4,NA,"Liang's Garden, Mons"
690,4814,50.453294,3.9527993,4.5,263,2.5,4.5,4.5,4.5,4.5,"Twenty Buns, Mons"
691,4916,50.453336,3.943375,3.5,19,1,4,4,4,NA,"La Rondinella, Mons"
692,4852,50.4533503,3.9528021,4.5,89,1,4,4,4.5,3.5,"Friterie Chez Bily, Mons"
693,4902,50.453351,3.952195,4,12,9,3,3.5,3,NA,"Le Touareg, Mons"
694,4932,50.453356,3.952799,3.5,44,9,3.5,3.5,3.5,3.5,"La Licorne, Mons"
695,4849,50.45345,3.966891,4.5,51,9,4.5,4.5,4,NA,"iCook, Mons"
696,4931,50.453494,3.94859,3.5,43,2.5,3.5,3.5,3.5,3.5,"Le Marchal, Mons"
697,4944,50.453552,3.943599,3,13,1,2.5,2.5,3,1.5,"Pizza Hut, Mons"
698,10521,50.453597,4.644149,4,45,1,4,4,4.5,NA,"Lucky Food, Jemeppe-sur-Sambre"
699,4853,50.453646,3.9503203,4.5,80,2.5,4,4.5,4,4,"La Grillade, Mons"
700,4882,50.4536606,3.9437102,4,50,2.5,4,3.5,3.5,3.5,"Belvedere Bis, Mons"
701,4828,50.4537316,3.9545033,4,367,2.5,4,3.5,3,3.5,"La table du boucher, Mons"
702,4844,50.4537321,3.9541395,4,139,1,4,4,4.5,4,"Chez Henri, Mons"
703,4889,50.45374,3.951169,4,15,2.5,4,4.5,4.5,NA,"Iberico & Co, Mons"
704,4939,50.45374,3.951169,3.5,12,9,4,3,3,4.5,"Le Bar a Tapas, Mons"
705,4829,50.453747,3.9539953,5,36,1,5,5,5,NA,"Texas Coffee House, Mons"
706,4871,50.4537496,3.9556385,4,46,2.5,4.5,4.5,3.5,4.5,"Le Pain Quotidien, Mons"
707,4867,50.4537504,3.9539624,4,74,1,3.5,3.5,4,3.5,"La Vie Est Belle, Mons"
708,4935,50.453811,3.953509,3.5,17,2.5,4,4,4,NA,"Le Carillon, Mons"
709,4897,50.453862,3.956255,3.5,36,2.5,3.5,4,3.5,3.5,"Jade de Chine, Mons"
710,4819,50.4539006,3.9514188,4.5,294,4,4.5,4.5,4,4.5,"L'art des Mets, Mons"
711,4820,50.4539354,3.9564942,4.5,130,4,4.5,4.5,4,4,"Les Gribaumonts, Mons"
712,4841,50.4539949,3.9515077,4,139,2.5,4,4,4,4,"Restaurant La Petite Couscoussiere, Mons"
713,4921,50.453995,3.95186,3.5,85,2.5,3.5,3.5,3.5,3.5,"La Trattoria, Mons"
714,4923,50.453995,3.951508,4,20,2.5,4,4,4.5,4,"Le Mechoui, Mons"
715,4901,50.454029,3.952573,3.5,130,2.5,3.5,3,3.5,3,"Pizzarella, Mons"
716,10675,50.454115,5.286418,4.5,91,4,4.5,4.5,4.5,4.5,"La Roseraie, Modave"
717,10231,50.454155,5.953053,3.5,72,2.5,3.5,3,3,3,"L`Acqua Rossa, Francorchamps"
718,10233,50.454166,5.954026,3.5,26,2.5,3.5,3.5,3,3,"Le Relais de Pommard Restaurant, Francorchamps"
719,4943,50.45429,3.95193,3,124,2.5,3,3,3,3,"Le Saint Germain, Mons"
720,4946,50.454314,3.952639,3,99,2.5,3.5,3.5,3.5,3.5,"Le Royal, Mons"
721,4831,50.4544597,3.9512954,4.5,80,2.5,4.5,4.5,4.5,4.5,"Osmose, Mons"
722,4865,50.4544852,3.9517804,3.5,130,2.5,4,4,4,3.5,"La Petite Provence, Mons"
723,4135,50.4544869,4.8539738,4.5,153,4,4.5,4.5,4.5,4,Chateau de Namur - L'Ermitage
724,4281,50.4545493,4.6051349,2.5,12,9,2,2,2.5,2,"Karoline, Namur"
725,4900,50.454558,3.951811,3.5,89,2.5,3.5,3.5,3.5,3.5,"La Cervoise, Mons"
726,4898,50.454579,3.952895,3.5,90,2.5,3.5,3.5,3.5,3.5,"Copenhagen Tavern, Mons"
727,9335,50.454599,6.12258,4,17,9,3.5,3.5,3.5,NA,"CheZ Phil, Robertville"
728,4863,50.4547283,3.9469048,4,49,4,4,4,3.5,4,"Les Gourmands, Mons"
729,4217,50.4547597,4.8780122,4,68,2.5,4,4,4,3.5,"Don Antonio, Namur"
730,4835,50.4547708,3.9539929,4.5,158,2.5,4,4.5,4,4.5,"Le Salon des Lumieres, Mons"
731,4933,50.45484,3.952074,3,136,2.5,3,3,3,3.5,"L'Excelsior, Mons"
732,4919,50.454868,3.953344,4,12,9,5,5,5,3.5,"Pitta Shop, Mons"
733,4855,50.4548975,3.9532754,4,44,1,4,4,4.5,3,"New Saveurs d'Asie, Mons"
734,4333,50.4549771,4.4319312,4,80,2.5,4,4,3.5,3.5,"On 600 bien, Charleroi"
735,4950,50.454982,3.95312,2,32,2.5,2.5,2.5,2,2.5,"La Palma d'Oro, Mons"
736,4945,50.454982,3.95312,3,46,2.5,3.5,3,3.5,NA,"Nota Bene, Mons"
737,8174,50.455091,4.877111,3,19,1,3.5,3.5,4,4,"Citi Wok, Jambes"
738,4837,50.4552318,3.9532084,4.5,100,4,4.5,4.5,4,4.5,"A la Fish, Mons"
739,4936,50.455377,3.953547,3.5,26,9,3.5,3.5,3,3.5,"Le Bistronomiquement Belge, Mons"
740,4883,50.455377,3.953547,4,31,2.5,4,4,4,4,"Le Vedette, Mons"
741,10959,50.455476,5.565694,4.5,25,2.5,4.5,4.5,4,4,"La Maison Rouge, Comblain-la-Tour"
742,4265,50.4555379,4.8738381,3,88,2.5,3,3,3.5,3,"Au Jardin D'Italia, Namur"
743,4861,50.4555475,3.9536268,4.5,37,1,4.5,4.5,4.5,4.5,"DivinoePasta, Mons"
744,4859,50.455599,3.9535886,4,41,2.5,4,4.5,4,4,"La Grande Muraille, Mons"
745,4938,50.455622,3.930422,3.5,18,9,4,4,4,NA,"Le Solstice, Mons"
746,4870,50.455622,3.9304223,4,47,9,4.5,4.5,4,4,"Loutraki, Mons"
747,10548,50.455626,4.242465,4,19,2.5,4,4.5,4.5,4.5,"La cite du bonheur, Morlanwelz"
748,11143,50.455767,4.862081,4,332,4,4.5,4,4,4,"Agathopede, Namur"
749,4906,50.456095,3.979106,4.5,12,9,4,4,4.5,3.5,"Friterie Chez Francine, Mons"
750,8376,50.456129,4.52792,3,17,2.5,3,2.5,2.5,2.5,"La Kasba, Fleurus"
751,8170,50.456492,4.871332,4,15,9,4,4.5,4,4,"Chez Gaby, Jambes"
752,4134,50.4565482,4.871756,4.5,41,2.5,4.5,4.5,4.5,NA,"Le Binome, Namur"
753,4138,50.4565658,4.9392913,4.5,111,4,4.5,4.5,4.5,4.5,"L'Atelier de Bossime, Namur"
754,4274,50.4569464,4.8634584,2.5,13,9,3,3,3,2.5,"Place2be, Namur"
755,4822,50.4569709,3.9550054,4.5,245,4,4.5,4.5,4,4,"Vilaine Fille Mauvais Garcon, Mons"
756,4244,50.4571176,4.8812853,4,16,9,4,4,4.5,3.5,"La Conchiglia, Namur"
757,4273,50.4571593,4.8594166,3,42,2.5,3.5,3,3.5,3.5,"Le Panorama, Namur"
758,4268,50.4574163,4.8730718,3,25,9,3.5,3.5,3,4,"Le Bovesse, Namur"
759,10096,50.457741,5.718371,4,18,9,4.5,4.5,4,3,"Le Pre Ardennais, Sougne-Remouchamps"
760,4884,50.457747,3.955308,4.5,21,1,4.5,4,4.5,3.5,Pita Mons
761,4911,50.458035,3.955508,3.5,28,2.5,3.5,3.5,3.5,3,"L'amphore, Mons"
762,8166,50.45806,4.867329,4.5,29,2.5,4,4.5,4.5,4.5,"La Schtouff, Jambes"
763,4149,50.4583829,4.8641501,4,134,2.5,4.5,4.5,4,4,"Au Phil des Saveurs, Namur"
764,4826,50.4587316,3.955767,4.5,126,2.5,4.5,4.5,4,4,"Tocco D'Italia, Mons"
765,8162,50.458732,4.88421,4.5,57,2.5,4,4.5,4,4,"Restaurant Roberto, Jambes"
766,4202,50.458848,4.8646335,4,46,2.5,4,4,4,3.5,"Asia Garden, Namur"
767,9014,50.459357,4.37999,4,11,2.5,4,4.5,4.5,NA,"L'Aigle Noir, Courcelles"
768,8173,50.4598,4.874897,3,31,2.5,3.5,3.5,3.5,NA,"Le Phenix, Jambes"
769,11005,50.460212,4.810231,4,11,9,4.5,3.5,4,4,"L'Intuition, Flawinne"
770,4264,50.4604866,4.8649768,3,71,2.5,3.5,3,3,3,"Brasserie de la Reine Blanche, Namur"
771,6318,50.46084,4.163659,4.5,62,2.5,4.5,4.5,3.5,4,"Sushi a la Vie, La Louviere"
772,6321,50.460902,4.098947,4.5,33,9,4.5,4.5,4,4.5,"l'Etincelle, La Louviere"
773,9011,50.46096,4.378686,4.5,27,9,4.5,4.5,4,3,"Le Rendez-Vous des Gourmets, Courcelles"
774,4846,50.461265,3.9351349,3.5,151,9,3.5,3.5,3.5,NA,La Pataterie Imagix Mons
775,8366,50.461364,4.581517,4.5,56,2.5,4.5,4.5,4.5,4,"Eddy Vraie, Fleurus"
776,4907,50.4614,4.015171,3.5,47,2.5,4,4,4,3.5,"La Cremerie, Mons"
777,9013,50.461401,4.379162,4.5,19,1,5,4.5,5,4,"Pizza Per Tutti, Courcelles"
778,9017,50.461401,4.379162,3.5,25,9,3,3,2.5,3.5,"Restaurant Bar a Tapas Casa Ramos, Courcelles"
779,6341,50.46147,4.202198,3.5,13,9,4.5,4,4,4,"L'eden, La Louviere"
780,9015,50.461474,4.379381,4,18,9,3.5,3,4,3.5,"Restaurant le Corfou, Courcelles"
781,9009,50.461493,4.378476,4.5,43,9,4.5,4.5,4,NA,"Orient The Vous, Courcelles"
782,9012,50.461544,4.378724,4,16,9,4,3.5,4,3,"Pavillon du Dragon, Courcelles"
783,9880,50.461621,6.19061,4.5,13,9,4.5,4,4.5,4,"Le Griesdeck, Butgenbach"
784,4173,50.4619986,4.8643918,4,112,2.5,4,4,4,4,"Le Temps des Cerises, Namur"
785,11155,50.462013,4.86424,4,111,2.5,4,4,4.5,4,"L'Entre Sambre et Mer, Namur"
786,4220,50.4620168,4.8636877,3.5,146,2.5,3.5,3.5,3.5,3.5,"L'1 PASSETEMPS, Namur"
787,4131,50.4620827,4.8654802,4.5,100,2.5,4.5,4.5,4.5,4.5,"VinoVino, Namur"
788,4300,50.4621252,4.4754046,4,185,2.5,4,4,3.5,3.5,"Il Trulletto, Charleroi"
789,4259,50.4622573,4.8666621,3.5,21,2.5,3.5,3.5,3,4.5,"La Pizzeria - La Gourmandise Italienne, Namur"
790,4224,50.4622664,4.8667473,4,41,2.5,4.5,4,4,4,"A Table, Namur"
791,4139,50.4623428,4.8662712,4.5,112,4,4.5,4.5,4.5,4,"Parfums de Cuisine, Namur"
792,4227,50.4623875,4.863768,4,25,2.5,4,4,4,3.5,"Le Bon Vin, Namur"
793,4275,50.4624588,4.8645229,2.5,63,2.5,3,3,3,3.5,"Le Passe Simple, Namur"
794,8896,50.46248,3.810487,3.5,33,2.5,3.5,4,3.5,3,"Aerodrome Cafe, Saint-Ghislain"
795,4213,50.4625889,4.8654975,4,22,2.5,3,4,3.5,NA,"Brasserie Fred, Namur"
796,4199,50.4625926,4.864424,3.5,144,2.5,4,3.5,4,4,"La Charbonnade, Namur"
797,4129,50.4626368,4.8645453,4.5,220,2.5,4.5,4.5,4.5,4,"LE PATANTHROPE, Namur"
798,4249,50.4626766,4.8671432,4,20,9,3.5,3.5,3.5,2.5,"Cafe Prince Baudouin, Namur"
799,4166,50.4627106,4.8654233,4,74,2.5,4,4,3.5,3.5,"La Cantina, Namur"
800,4143,50.462739,4.8665237,4,130,2.5,4.5,4,4,4,"L'Huile sur le Feu, Namur"
801,4150,50.4628503,4.8539819,4.5,27,2.5,5,4.5,5,NA,"Chez Fabio, Namur"
802,4310,50.4628794,4.4161242,3.5,99,2.5,4,4,4,3.5,"Bell italia, Charleroi"
803,9010,50.462894,4.391916,4.5,28,9,4.5,4,4.5,4,"Les Caprices de Pates, Courcelles"
804,8169,50.462923,4.881025,3.5,35,2.5,3.5,4,3.5,3.5,"L'Elephant Thai, Jambes"
805,4156,50.4630356,4.8654215,4,180,2.5,4,4,4,4,"Restaurant le Myconos, Namur"
806,4152,50.4630356,4.8654215,4.5,53,1,4.5,4.5,5,3.5,"Gecko - Thai Kitchen & Take Away, Namur"
807,4243,50.4630403,4.863807,4,11,1,4,3.5,4,NA,"Tea Time Cafe, Namur"
808,4187,50.4630547,4.8656373,4,112,2.5,4,4,3.5,3.5,"Enez Grill, Namur"
809,4253,50.4630991,4.8647669,3.5,69,2.5,3.5,3.5,3.5,3.5,"La Taverne Alsacienne, Namur"
810,8171,50.463255,4.889002,3,15,9,3,3,3,2.5,"Lunch Garden, Jambes"
811,4262,50.4633439,4.8647158,4,21,1,3.5,4,3.5,NA,La Piazza Namur
812,4228,50.4633873,4.8639002,4,13,1,4,3.5,4,NA,"La Mere Celeste, Namur"
813,4252,50.4633873,4.8639002,3.5,41,9,3.5,3.5,3.5,4,"La Mere Gourmandin, Namur"
814,4198,50.4634394,4.8637858,4,59,2.5,4,4,3.5,3.5,"le pere gourmandin, Namur"
815,4280,50.4634933,4.8658016,3,24,9,3,3,3.5,4,"Pizza Hut, Namur"
816,4312,50.4635872,4.4813553,4,45,9,4.5,4.5,4,4,"Da mimmo E giovanna, Charleroi"
817,4209,50.4636933,4.8631708,4,76,2.5,4,4,3.5,NA,"Los Gringos, Namur"
818,4184,50.4636993,4.8647826,4,71,2.5,4,4,3.5,3.5,"Chez Riz, Namur"
819,4207,50.4637083,4.8639213,4,30,2.5,4,4,3.5,4,"&Mocion, Namur"
820,4174,50.4637382,4.8629187,4,39,2.5,4,4,3.5,3.5,"Le Pain Quotidien, Namur"
821,6315,50.46379,4.202929,4.5,88,4,4.5,4.5,4,4,"Restaurant Ugo, La Louviere"
822,4145,50.4638318,4.8472988,4.5,93,2.5,4.5,4.5,4.5,4.5,"Basilic & Co, Namur"
823,4176,50.463842,4.8634566,3.5,175,2.5,3.5,3.5,3.5,3.5,"Le Chemin du Cedre, Namur"
824,4877,50.4638823,3.9816636,5,11,4,5,5,5,NA,"Pane & Olio, Mons"
825,4233,50.4639444,4.8677259,4,23,2.5,3.5,3.5,4,NA,"Brasserie Metropole, Namur"
826,9399,50.464157,4.418486,3.5,16,2.5,3.5,4,3,4.5,"Restaurant Le Zeppelin, Gosselies"
827,6330,50.464182,4.203486,4.5,36,2.5,4.5,4.5,4.5,4.5,"Naoussa, La Louviere"
828,4417,50.4642198,4.4649753,2,16,1,2,2.5,2.5,2.5,"Meli Melo, Charleroi"
829,8164,50.464291,4.893116,4,58,2.5,4,4,4,4,"Le Pourquoi Pas, Jambes"
830,4257,50.4643549,4.8653968,3.5,18,1,4,3.5,4,4,Exki Namur
831,4282,50.4644058,4.8667439,2,16,1,3,3,3,3.5,"Taverne le Moliere, Namur"
832,4186,50.4644176,4.8632394,4.5,27,2.5,4.5,4.5,4.5,4.5,"La Petite Boulangerie, Namur"
833,4261,50.4644828,4.8639551,3,57,2.5,3,3,3.5,3.5,"Etna, Namur"
834,4189,50.4645436,4.8680124,4.5,38,2.5,4.5,4,4,4,"Les Embruns, Namur"
835,4165,50.4645613,4.864226,4,46,2.5,4,4,3.5,NA,"Le Bouchon, Namur"
836,4278,50.4645954,4.8646297,2.5,79,2.5,2.5,2.5,2.5,2.5,"San Marino, Namur"
837,4215,50.4648382,4.8656931,4,30,1,4.5,4.5,4.5,4,"Sushi Garden, Namur"
838,6350,50.464946,4.199708,2,30,9,2,3,2.5,2.5,"La Villa D'Este, La Louviere"
839,4169,50.4649722,4.8502205,5,47,4,5,5,4.5,5,"Bienvenue Chez Vous, Namur"
840,4237,50.4650402,4.845343,4.5,23,2.5,4.5,4,4.5,4.5,"Le Cherche Midi, Namur"
841,4219,50.4654422,4.8629006,3.5,39,1,3.5,3.5,4,NA,"Yayami, Namur"
842,4236,50.4657934,4.8618558,4.5,11,1,4.5,4.5,4.5,4.5,"Le Tipaza, Namur"
843,6635,50.466062,5.871319,3.5,101,2.5,4,3.5,3.5,4,"La Source de la Geronstere, Spa"
844,4158,50.4661309,4.8495984,4.5,73,4,4.5,4.5,4.5,4,"Les Sens du Gout, Namur"
845,4234,50.4661361,4.8609846,4,15,9,3.5,4,3,4,"Le Bouffon du Roi, Namur"
846,4231,50.4662774,4.8643421,3.5,61,2.5,4,4,3.5,4,"Brasserie Charbon Rouge, Namur"
847,4255,50.4665999,4.8601202,4,13,9,4,4,2.5,3.5,"Ursule Et Petula, Namur"
848,4203,50.4668303,4.8638728,3.5,70,2.5,3.5,3.5,4,3,"Phat Thai, Namur"
849,4256,50.4668448,4.8849957,3.5,64,2.5,3.5,3.5,3.5,3.5,"Les Champs Elysees, Namur"
850,4226,50.4672461,4.8637872,4,16,2.5,3.5,4,4,NA,"Entre Nous, Namur"
851,4381,50.4672823,4.4409013,3.5,18,9,3,3.5,3,3,"Rackstore Cafe, Charleroi"
852,8899,50.467434,3.807904,3.5,21,9,3.5,3.5,3.5,3.5,"Din'O Resto, Saint-Ghislain"
853,9972,50.467448,4.275228,3,39,9,3,3,3,3,"Wok Magic, Chapelle-lez-Herlaimont"
854,4163,50.4674652,4.8682392,4,105,2.5,4.5,4.5,4,4,"Au Bombay, Namur"
855,6624,50.467607,5.924667,4.5,36,2.5,4.5,4,4,5,"Domaine de Malchamps, Spa"
856,10501,50.467663,4.999032,4,17,9,4.5,3.5,4,4,"Bistro l'O, Thon-Samson"
857,9970,50.467686,4.274323,3.5,68,9,4,3.5,3.5,3.5,"Restaurant D'un Gout A L'autre, Chapelle-lez-Herlaimont"
858,4197,50.4680417,4.8614054,4.5,13,2.5,4.5,4,4,3.5,"L'Oasis, Namur"
859,4250,50.4680922,4.8571504,3.5,24,9,3.5,3.5,3.5,3.5,"le Mechoui, Namur"
860,4260,50.4681715,4.8595474,3.5,18,4,4.5,4,3,4,"Le restaurant la gourmandise italienne, Namur"
861,4185,50.468273,4.8663224,4,89,2.5,4,4,4,4,"Chez Chen, Namur"
862,4179,50.4685208,4.8560897,4.5,60,1,4.5,4,4.5,4,"Chez Sideshin, Namur"
863,6344,50.468755,4.210455,3.5,15,9,3.5,4,3.5,3.5,"Fortunati, La Louviere"
864,6327,50.470441,4.190584,3.5,69,2.5,4,3.5,4,3,"L'Antica Roma, La Louviere"
865,4941,50.470967,3.88661,3,36,9,2.5,3,2.5,4,"Le Petit Marais, Ghlin"
866,4271,50.4712813,4.8507668,3,21,9,3,3,4,NA,"Panda Wok, Namur"
867,4914,50.471306,3.912452,4,12,2.5,4,3,3,NA,"La Reggina, Ghlin"
868,10888,50.471328,5.387808,4,193,4,4.5,4,4,3.5,"Le Coq aux Champs, Tinlot"
869,4926,50.471389,3.936111,3.5,36,2.5,3,3.5,3.5,4,"Club House Grand Large, Mons"
870,9969,50.471553,4.281153,4.5,30,9,4.5,4,4.5,NA,"I Cugini, Chapelle-lez-Herlaimont"
871,6325,50.471712,4.18945,4,25,9,4.5,3.5,4,5,"L'Osteria Romantica, La Louviere"
872,4211,50.471736,4.8601276,4.5,24,9,4.5,4.5,4.5,5,"L'Heure de Table, Namur"
873,8369,50.471983,4.541884,4,34,2.5,3.5,4,4,3.5,"L'Empire du Dragon, Fleurus"
874,4214,50.4721016,4.8903662,4,57,2.5,4,4,4,3.5,"La Ferme du Quartier, Namur"
875,4251,50.4722574,4.8260817,3.5,13,9,4,3.5,3.5,NA,"La Vita E Bella, Namur"
876,4132,50.4722591,4.8331171,4.5,84,2.5,4,4.5,4,NA,"Brasserie Edgard, Namur"
877,4222,50.4722923,4.8704945,4,26,2.5,3.5,3.5,3.5,3,"La Chine, Namur"
878,4331,50.4724691,4.4423637,4,33,2.5,4,4.5,4,4,"Le City's, Charleroi"
879,6314,50.472998,4.191558,4.5,97,4,4.5,4.5,4.5,4.5,"Cema Passion, La Louviere"
880,4378,50.4733215,4.4600101,4,16,2.5,4,4,4,5,"L'evasion, Charleroi"
881,8297,50.473563,5.675618,4,67,2.5,4,3.5,3.5,3.5,"Le P tit Bouchon, Aywaille"
882,8300,50.473885,5.676316,4,51,1,4,4,4,4,"Chez Claudio, Aywaille"
883,8294,50.473898,5.674012,4,77,2.5,4.5,4.5,4,4,"Il Calice, Aywaille"
884,8306,50.473975,5.679263,3,19,9,3,3,3,4,"New China, Aywaille"
885,9401,50.474137,4.446809,2.5,28,2.5,2.5,3,2.5,3,"Chichi's, Gosselies"
886,4840,50.4741865,3.9000909,4.5,22,4,4.5,4,4,NA,"Terre et mer Ghlin, Mons"
887,11163,50.474283,4.218904,4.5,108,4,4.5,4.5,4.5,4.5,"La Table d'Or, La Louviere"
888,6335,50.474315,4.123463,4,16,1,3,4,3.5,3.5,"Le Meridien, La Louviere"
889,4298,50.474537,4.4422345,4.5,48,4,4.5,4.5,4,4,"Espace Culinaire Bulthaup, Charleroi"
890,8291,50.47463,5.674932,4.5,121,4,4.5,4.5,4.5,4.5,"Sophie et Nicolas, Aywaille"
891,6313,50.474634,4.184861,4.5,143,2.5,4.5,4.5,4.5,4.5,"Le Bistrot Jules, La Louviere"
892,8293,50.474693,5.675204,4.5,28,2.5,4.5,4,4.5,NA,"Cantil, Aywaille"
893,4195,50.4747431,4.8740233,4,76,2.5,4,4,4,4,"Pasta Bar Don Clemente, Namur"
894,4122,50.4747866,4.7380218,4.5,351,4,5,4.5,4.5,4.5,"L'Essentiel, Namur"
895,6312,50.474839,4.187285,4.5,142,2.5,4.5,4.5,4.5,4.5,"Le Bruit Qui Court, La Louviere"
896,8301,50.474863,5.675352,4,40,2.5,4,4,4,4,"Gastronomia della Mamma, Aywaille"
897,6329,50.474924,4.186366,4,34,2.5,4,4,4,4,"Les Gourmands Disent, La Louviere"
898,6343,50.474928,4.199817,3.5,14,9,4,3.5,3.5,NA,"Le Vintage, La Louviere"
899,6320,50.475123,4.185224,4,103,2.5,4,4,4,4,"Brasseries Mansart, La Louviere"
900,11087,50.475167,6.109939,4,17,9,3.5,3.5,3,3.5,"Aux Saveurs Des Fagnes, Ovifat"
901,4126,50.4754207,4.9670498,4.5,159,4,4.5,4.5,4.5,4.5,"La Bergerie De Lives Sur Meuse, Namur"
902,6628,50.475853,5.859708,4,176,2.5,4,4,3.5,4,"La Tonnellerie, Spa"
903,9400,50.476074,4.440616,3,48,1,3,2.5,3.5,2,"Le Mega Grill, Gosselies"
904,8299,50.476117,5.67542,4,47,2.5,3.5,4,3.5,3.5,"Villa des Roses, Aywaille"
905,6331,50.476149,4.182435,4.5,39,9,4.5,4.5,4,4,"Les Enfants de la Pergola, La Louviere"
906,6316,50.476513,4.186849,4.5,104,2.5,4.5,4.5,4.5,4.5,"Il Passatore, La Louviere"
907,9887,50.476566,4.247187,3,14,9,3.5,3.5,3.5,3.5,"Chez Vincent, Fayt lez Manage"
908,4325,50.4768125,4.4396138,4,51,2.5,4.5,3.5,4.5,4.5,"Les Mille et une Nuits, Charleroi"
909,6322,50.476904,4.150663,4.5,27,9,4.5,5,4.5,4.5,"La Brasserie du Damier, La Louviere"
910,6319,50.476968,4.186375,5,16,9,4.5,4.5,4.5,NA,"A Modo Mio, La Louviere"
911,10346,50.476992,5.578811,4.5,120,9,4.5,4.5,4,4.5,"Les Roches Grises, Comblain-au-Pont"
912,10349,50.476992,5.578811,4,11,1,4,4.5,4.5,NA,"La Riviera, Comblain-au-Pont"
913,6317,50.477011,4.187391,4,131,2.5,4.5,4,4.5,4.5,"Le Grain De Sel, La Louviere"
914,9884,50.477014,4.24362,4.5,69,2.5,4,4,4,4,"Ciao Italia, Fayt lez Manage"
915,11138,50.477414,5.52331,4.5,27,2.5,4.5,4.5,4.5,4,"Trattoria Da Pilesya, Anthisnes"
916,6340,50.477591,4.187055,4,19,9,4.5,4.5,4.5,4,"Le Pavillon Imperial, La Louviere"
917,6348,50.477844,4.187758,3,12,2.5,3.5,3.5,4,3,"La Loca, La Louviere"
918,10945,50.47791,3.951679,3.5,36,2.5,4,3.5,4,3,"Restaurant L'Italiano, Nimy"
919,10438,50.477929,4.701219,4.5,14,9,4.5,5,4.5,4.5,"Printemps, Spy"
920,6336,50.478231,4.187986,3.5,169,2.5,3,3.5,3.5,3,"La Dolce Vita, La Louviere"
921,9330,50.478626,6.111989,4,84,2.5,4,4,4,3.5,"Le Mont Rigi, Robertville"
922,6333,50.478633,4.188432,4,12,9,4.5,4.5,4,3,"italia grill, La Louviere"
923,4200,50.4787666,4.8793806,4,33,9,4,4,4,3.5,"Le Resto des Frangines, Namur"
924,6332,50.478862,4.186111,4.5,12,9,5,5,5,NA,"Patatissima, La Louviere"
925,6339,50.478893,4.186104,3.5,12,9,3.5,3.5,3.5,3.5,"Le Bosphore, La Louviere"
926,6323,50.479,4.186321,4,77,2.5,4,4.5,4,3.5,"Le Xalkis, La Louviere"
927,10347,50.479709,5.589758,4.5,29,2.5,4.5,4.5,4.5,4,"L'Entre Deux, Comblain-au-Pont"
928,10348,50.479719,5.589824,4,32,2.5,4,4,3.5,3.5,"Les Potes Iront, Comblain-au-Pont"
929,9971,50.479812,4.271225,3.5,39,2.5,4,3.5,3.5,4,"La Fontana d'Aldo et Tino, Chapelle-lez-Herlaimont"
930,10098,50.479934,5.712178,4,11,1,4.5,4.5,4.5,5,"Brasserie Restaraunt du Cheval Blanc, Sougne-Remouchamps"
931,10097,50.479967,5.712411,3.5,59,2.5,3.5,3,3.5,3,"Au 1912, Sougne-Remouchamps"
932,10579,50.480155,5.235421,4.5,23,9,4.5,4,4,3.5,"Dame Josephine, Marchin"
933,10437,50.480251,4.704656,4,21,9,4.5,4,4,4,"La Spada, Spy"
934,6326,50.480604,4.201892,5,19,9,5,5,5,5,"Bella Calabria, La Louviere"
935,4910,50.480721,3.90585,4,54,2.5,4,4,3.5,4,"Osaka, Mons"
936,4239,50.4812427,4.9625849,4,13,2.5,4.5,4.5,4.5,4,"La Feraugiere, Namur"
937,4875,50.481665,3.9496613,4,57,2.5,4.5,3.5,3.5,3,"George Doutrelepont, Mons"
938,10978,50.481892,5.986892,4,14,2.5,4.5,4.5,4,NA,"Hotel Beau Site - Restaurant, Hockai"
939,10320,50.482577,3.852503,4.5,26,9,4.5,4.5,4.5,4,"Le Nouvel Ermitage, Baudour"
940,10318,50.4826,3.858577,4.5,71,4,5,4.5,4.5,4.5,"La Canette de cuivre, Baudour"
941,8367,50.482718,4.550947,4,53,2.5,4,4,4,4,"Al Picchio Rosso, Fleurus"
942,10319,50.482838,3.83801,4,260,2.5,4,3.5,3.5,3.5,"Le Faitout, Baudour"
943,10568,50.484014,3.747078,3.5,98,2.5,3.5,3.5,3.5,3.5,"Boeuf Qui Rit, Ville-Pommeroeul"
944,6349,50.484493,4.200668,2.5,35,9,3,3,3.5,3,"Mega-Grill, La Louviere"
945,4153,50.4847929,4.7608814,4.5,50,9,4.5,4.5,4,4.5,"C' Comme Ca, Namur"
946,4348,50.4850607,4.4501729,3.5,62,2.5,4,4,3.5,3,"Il Trentaquattro, Charleroi"
947,9885,50.485567,4.227746,3.5,43,1,3.5,3.5,4,1,"Happy Wok, Fayt lez Manage"
948,10961,50.485574,4.758879,3.5,17,2.5,4,3.5,4,4,"La Villa Clara, Temploux"
949,8357,50.485749,5.750418,4.5,21,2.5,4.5,4.5,4.5,4.5,"Les Casseroles s'Affolent, Theux"
950,10529,50.485942,4.172103,3.5,36,1,3,3,3.5,3.5,"La Cantine des Italiens, Houdeng-Goegnies"
951,4279,50.4860213,4.8904974,3,26,9,3,3.5,4,3.5,"Yumbo, Bouge"
952,10578,50.48641,5.222436,4.5,127,4,5,4.5,4.5,4.5,"Arabelle Meirlaen- Cuisine Intuitive, Marchin"
953,8522,50.486728,5.09807,5,14,9,5,5,5,5,"La Gourmandise, Andenne"
954,9008,50.486907,4.328426,4.5,80,4,4.5,4.5,4.5,4,"Le Mont-a-Gourmet, Courcelles"
955,8372,50.487933,4.559711,3.5,21,2.5,4,3.5,3.5,4,"L'artemis, Fleurus"
956,8523,50.488105,5.09754,4,21,9,4,4.5,4,4,"La Simplicite, Andenne"
957,10627,50.488199,3.964414,3,22,2.5,3,3,3,NA,"Restaurant The Saloon, Maisieres"
958,4276,50.4885711,4.7931442,3,35,2.5,3.5,3.5,3,4,"La Tavola, Suarlee"
959,8519,50.488769,5.097135,4,37,9,4,4,4,4,"Le Barcelone, Andenne"
960,8521,50.489622,5.095559,4.5,19,9,5,4.5,4.5,5,"La Gaivota, Andenne"
961,8515,50.489631,5.09644,4.5,23,9,5,4.5,4.5,4,"Itinerances Gourmandes, Andenne"
962,8365,50.489654,5.790942,3,21,9,4,3.5,3.5,3.5,"Gropierre, Theux"
963,10567,50.489681,3.728823,4.5,46,2.5,4.5,4,4,4,"Le Vieux Rond, Ville-Pommeroeul"
964,9883,50.489692,4.226795,4.5,52,2.5,4.5,4.5,4,5,"Il Maestro, Fayt lez Manage"
965,8524,50.49034,5.096931,4,23,9,4,4,4,4.5,"Chez YOU FU, Andenne"
966,6621,50.490591,5.855481,4.5,31,1,4.5,4.5,4.5,5,"Au Lutin Gourmand, Spa"
967,6629,50.490897,5.863336,4,17,1,4,4.5,4,4.5,Un Air De Vieux Spa
968,6632,50.490897,5.863336,4,122,2.5,4.5,4,4,4,"Kom Chez Toi, Spa"
969,4258,50.4911321,4.8877661,4.5,13,2.5,4.5,5,4.5,5,"Au Tord Boyaux, Namur"
970,8527,50.491168,5.094208,3.5,20,2.5,4,3.5,4,3.5,"Mamma Mia, Andenne"
971,6639,50.491314,5.854877,4,19,2.5,4,4.5,4.5,4,"La Grande Muraille, Spa"
972,8525,50.491505,5.09807,4,20,9,4.5,4,4.5,4.5,"Le Shangai, Andenne"
973,8529,50.491567,5.07221,2.5,22,9,3,3,3,3,"Le Palais de Shu Hong, Andenne"
974,8520,50.491596,5.096528,4,23,9,3.5,3.5,4,NA,"Saint Dragon, Andenne"
975,6634,50.491763,5.867811,4,23,1,3.5,3.5,4,3.5,"Le Pavillon Chinois, Spa"
976,6609,50.491988,5.862373,4,167,2.5,4,4,4,4,"L' Auberge, Spa"
977,6617,50.492025,5.862994,4,129,2.5,4.5,4.5,4,4,"Le Relais, Spa"
978,6619,50.492176,5.86008,4,109,4,4.5,4.5,4,4,"l'art de vivre, Spa"
979,6608,50.492194,5.866224,4.5,151,2.5,4.5,4.5,4.5,4.5,"St-James, Spa"
980,6644,50.492241,5.863135,3.5,19,1,4,4,4,NA,"Sur le Pouss', Spa"
981,6626,50.492284,5.868203,4.5,38,2.5,4.5,4.5,4.5,NA,"Cote Montagne, Spa"
982,6606,50.492452,5.86648,4.5,179,4,5,4.5,4.5,4.5,"L'O De Source, Spa"
983,6622,50.492631,5.866558,4,71,1,4,4,4,4,"La Dolce Vita, Spa"
984,6630,50.492639,5.864729,4,75,2.5,4.5,3.5,4,4,"Le Trois A, Spa"
985,6631,50.492652,5.86458,4,35,2.5,4,3.5,4,4,"Poivre & Sel, Spa"
986,6625,50.492698,5.866906,3.5,115,2.5,3.5,4,4,3.5,"Sol di Capri, Spa"
987,6636,50.492744,5.865473,4,96,2.5,4,4,4,4.5,"Harrold's - The World of Burger, Spa"
988,6640,50.493398,5.887971,4,12,2.5,4,4,4,3.5,"La Fontaine du Tonnelet, Spa"
989,8526,50.49402,5.078383,4,20,2.5,4,4,4,4,"Le P'tit Resto, Andenne"
990,10528,50.494671,4.133974,3.5,134,2.5,3.5,3.5,3,3,"La Planche, Houdeng-Goegnies"
991,10569,50.49508,3.716494,4,23,9,4,3.5,3.5,3.5,"Pulcinella, Ville-Pommeroeul"
992,4192,50.4956029,4.9322406,4,39,4,4.5,4,4,3,"Restaurant Michel, Namur"
993,10876,50.495663,3.715222,3.5,27,2.5,4,4,4,5,"Cap d'Asie, Stambruges"
994,9570,50.498076,3.70372,4.5,36,9,4.5,4.5,4.5,4,"Le Napoleon, Beloeil"
995,4896,50.499384,3.987791,4.5,14,2.5,4,4,4,NA,"L'Atome des saveurs, Mons"
996,10902,50.500205,4.580015,2,11,9,1.5,2,1.5,NA,"Franck, Ligny"
997,10901,50.500205,4.580015,3,31,9,4,3,4,3,"City Wok, Ligny"
998,9886,50.501669,4.233616,4,21,9,4.5,4,4,4,"Le Petit Cellier, Fayt lez Manage"
999,10291,50.50196,4.108623,3,15,9,3,3,3,3,"Taverne-Restaurant le Xviiieme Siecle, Le Roeulx"
1000,9557,50.502182,5.649922,4,70,2.5,4,4,4,4,"Le Narval, Sprimont"
1001,8514,50.503121,5.091412,4.5,52,9,4.5,4.5,4.5,4.5,"Friterie de Tramaka, Andenne"
1002,4190,50.5032217,4.8727195,4.5,17,9,4.5,4,4.5,4.5,"Casa Mia, Namur"
1003,11071,50.504242,4.670797,4.5,18,2.5,4.5,4.5,4,4.5,"Brasserie NH Falnuee, Mazy"
1004,10016,50.50517,4.269527,5,11,9,5,5,4.5,NA,"Comme chez Fred, Seneffe"
1005,6334,50.505736,4.171805,4,11,9,4,4,3.5,4,"L'Auberge Fleurie, La Louviere"
1006,10899,50.50587,5.568505,4.5,36,9,4.5,4.5,4.5,4.5,"le relais, Poulseur"
1007,9571,50.50604,3.692692,3.5,26,2.5,3.5,3.5,3.5,2.5,"Le Paradiso, Beloeil"
1008,9261,50.506225,5.396167,4,17,9,3.5,4,4,3.5,"Le Qilin, Nandrin"
1009,9555,50.507156,5.658777,4.5,77,2.5,4.5,4.5,4.5,4.5,"Un Max de Gout, Sprimont"
1010,8364,50.507433,5.824921,3.5,28,2.5,4,4,4,4,L'Entre-Theux
1011,8893,50.507532,3.771443,4,53,9,4.5,4,4,4,"Le funambule, Saint-Ghislain"
1012,8298,50.50765,5.730677,4,123,2.5,4,3.5,3.5,4,"La Tete de Boeuf Deigne, Aywaille"
1013,8891,50.507851,3.799966,4.5,88,2.5,4.5,4.5,4,3.5,"Le Noir Bonnet, Saint-Ghislain"
1014,10662,50.50835,5.959139,4,48,2.5,4,4,4.5,4,"Le chalet du pont de belleheid, Sart-lez-Spa"
1015,9437,50.510121,3.593566,4.5,22,9,4,4.5,4,NA,la brasserie de Peruwelz
1016,6023,50.511165,5.240793,4,21,1,4,4,4.5,4.5,"Le Purple, Huy"
1017,10526,50.511396,4.008091,4.5,35,1,4.5,4.5,4.5,NA,"La Bottega Della Pizza, Casteau"
1018,10913,50.511588,4.362895,4.5,13,9,4.5,4.5,4.5,5,"The Time Of..., Pont-a-Celles"
1019,9559,50.511658,5.659254,4,17,9,4.5,4,4.5,3,"Le Pacha, Sprimont"
1020,8971,50.511949,5.90517,4.5,94,2.5,4.5,4,4,4,"Le Chalet Suisse, Jalhay"
1021,9588,50.512016,5.153852,4.5,30,9,4.5,4.5,4,4,"Le Champerdrix, Wanze"
1022,6036,50.512207,5.239247,4,19,9,4,3.5,4,4,"La Petite Cour, Huy"
1023,9435,50.512313,3.591826,5,55,2.5,5,5,5,NA,"Restaurant les hauts de france, Peruwelz"
1024,10289,50.512516,4.100679,4,116,2.5,4,4,3.5,4,"Mulino Bianco, Le Roeulx"
1025,9138,50.513173,3.923619,4,66,2.5,4,4,4,NA,"La Saisonniere, Jurbise"
1026,8355,50.51345,5.81796,4.5,29,9,4.5,4.5,4.5,4,"La Ferme aux plumes, Theux"
1027,8356,50.513579,5.77694,4,32,2.5,3.5,4,3.5,4,"Forest'bar, Theux"
1028,8359,50.513597,5.780043,4.5,17,2.5,4.5,4.5,4.5,4,"Le Pied de la Fagne, Theux"
1029,10900,50.513898,4.579667,4,21,2.5,3.5,4,4,4,"La grange 1815, Ligny"
1030,10524,50.514913,4.012288,4.5,35,2.5,5,5,4.5,4.5,"Le Bouton D'Or, Casteau"
1031,6024,50.516062,5.23944,3.5,24,9,4,3.5,4,3.5,"Takobo, Huy"
1032,9135,50.516089,3.921544,4,111,2.5,4,4.5,4,4,"La Maison du Berger, Jurbise"
1033,6014,50.516549,5.234761,4.5,24,2.5,4.5,4.5,4.5,4,"Hotel du Fort & la Reserve, Huy"
1034,10013,50.516641,4.262502,4.5,219,4,4.5,4.5,4,4,"Au Gre du Vent, Seneffe"
1035,5997,50.517144,5.241844,4.5,210,4,4.5,4.5,4.5,4.5,"Les Soeurs Grises, Huy"
1036,6000,50.517409,5.242449,4.5,125,2.5,4.5,4.5,4.5,4,"La Tartine au Beurre, Huy"
1037,6022,50.517427,5.242003,3.5,59,2.5,3.5,3.5,3.5,3.5,"Azzurra, Huy"
1038,6019,50.517479,5.241653,4,104,9,4,4,4,4,"La Table du Traiteur, Huy"
1039,6008,50.517708,5.241363,4,45,2.5,4,4.5,4,3.5,"Chez Song, Huy"
1040,8352,50.517878,5.815904,4.5,22,2.5,4.5,4.5,4.5,NA,"Le pre des Oreades, Theux"
1041,6005,50.517944,5.239161,4.5,36,2.5,4.5,4.5,4.5,4.5,"Le Pingouin, Huy"
1042,6042,50.518815,5.240054,3.5,20,9,3.5,3.5,3,2.5,"Le Palace, Huy"
1043,6007,50.518854,5.240179,4,23,2.5,4,4,4,NA,"L'Atelier Pates, Huy"
1044,6015,50.51903,5.241069,4,32,9,4,4.5,4,3.5,"La Tete de Chou, Huy"
1045,6020,50.519065,5.23883,4,14,1,4,4,4,3.5,"Village Chinois 18, Huy"
1046,6034,50.519085,5.244788,3.5,18,2.5,3.5,4,4,4,"Contre Vents Et Marees, Huy"
1047,6004,50.519574,5.240237,4,63,9,4.5,4,4,4,"La Tour Colombes, Huy"
1048,6027,50.520258,5.238837,3.5,43,9,3.5,3.5,3.5,3,"Le Sorgho Rouge, Huy"
1049,9140,50.520857,3.918022,4,21,2.5,4.5,4,4,NA,"Fleurs D'Oranger, Jurbise"
1050,9262,50.520893,5.41716,3,81,9,3.5,3,3.5,4,"Keyaki Condroz, Nandrin"
1051,9256,50.520893,5.41716,4,36,1,4,4,4.5,4,"Les Routiers, Nandrin"
1052,6032,50.520957,5.240821,4,50,2.5,4,4,3.5,4,"Royal Thai, Huy"
1053,6012,50.521087,5.234991,4,43,2.5,4,4,4,3.5,"La rotisserie, Huy"
1054,10428,50.521427,4.643961,4,32,9,4,4,4,3,"Lo Stromboli, Sombreffe"
1055,6041,50.521507,5.234416,3.5,28,2.5,4,4,4,3.5,"Mamma mia, Huy"
1056,6003,50.521507,5.234416,4.5,17,9,4.5,4.5,4.5,NA,"O Douro, Huy"
1057,6035,50.522219,5.233881,4,13,2.5,4,4,4.5,4,"Arberia, Huy"
1058,5999,50.522759,5.241466,4.5,102,2.5,4.5,4.5,4,4,"Barabas, Huy"
1059,6028,50.523407,5.240968,3.5,35,1,3.5,3.5,4,3,"Hui Feng, Huy"
1060,9556,50.523435,5.658033,4,76,4,4.5,4,4,3.5,"Didier Galet, Sprimont"
1061,9560,50.524311,5.723547,3.5,68,2.5,3.5,3.5,4,3,"Le Banneway 2, Sprimont"
1062,6046,50.524336,5.235726,3,37,1,3,3,3,2.5,"Super Wok, Huy"
1063,9260,50.524379,5.422854,4.5,11,9,4.5,5,4.5,5,"Luigi Pizzeria, Nandrin"
1064,10832,50.524424,4.477017,4,11,9,4,3.5,4,NA,"Il Fienile, Bons Villers"
1065,9569,50.524839,3.727034,4,80,9,4,4,4,4,"Nefeli, Beloeil"
1066,10427,50.52507,4.610283,4,16,9,4.5,4.5,4.5,3.5,"Le Cousin D'en Face, Sombreffe"
1067,9558,50.525551,5.656777,4,62,2.5,4,4,4,4.5,"George's Brasserie, Sprimont"
1068,9572,50.525817,3.649032,3.5,22,9,4,4,4,NA,"Drapeau 5 Etoiles, Beloeil"
1069,6011,50.526488,5.255213,4,82,2.5,4,4,3.5,3.5,"Pane & Vino, Huy"
1070,10018,50.526672,4.266767,2,18,9,2,2.5,2,NA,"De L'orangerie, Seneffe"
1071,9136,50.528417,3.912954,4,180,2.5,4,4,4,3.5,"Dolce Italia, Jurbise"
1072,7782,50.529088,4.747759,3,97,2.5,3.5,3,3.5,3,"Le Saint-Loup, Gembloux"
1073,6033,50.529426,5.260389,3,55,2.5,3,3.5,3,3,"La Brasserie, Huy"
1074,9263,50.529519,5.431163,3,38,9,2.5,2.5,2.5,NA,"Barbacoa, Nandrin"
1075,6030,50.529534,5.249049,3.5,29,9,3.5,3.5,3.5,3.5,"L'Osteria, Huy"
1076,10812,50.529631,3.691898,5,12,9,4.5,4.5,4.5,5,"Daniel Et Nancy, Quevaucamps"
1077,10379,50.530386,5.714697,4,42,2.5,4,4,4.5,3.5,"La Marelle, Louveigne"
1078,8358,50.531101,5.832411,4,16,2.5,4,4,4,NA,"La Brasserie de Franchimont, Theux"
1079,9746,50.531309,5.572617,4.5,37,1,4.5,4,4.5,4,"La Stradina, Esneux"
1080,9750,50.531319,5.571879,3,19,9,2.5,3,2.5,NA,"La Charlotte Aux Fraises, Esneux"
1081,6031,50.531491,5.219091,3.5,26,9,3.5,3.5,3.5,NA,"Ti Amo Pizzeria, Huy"
1082,10907,50.531653,5.266271,3,51,2.5,3,3.5,3,3,"La Brasserie Hutoise, Tihange"
1083,8360,50.53174,5.816065,3.5,33,2.5,4.5,3,4,3,"Al Pierino, Theux"
1084,6002,50.532107,5.219206,4,111,4,4,4,3.5,4,"La Gastronomie du Mayeur, Huy"
1085,9586,50.533818,5.20997,4.5,130,9,4.5,4.5,4.5,4,"Pa'So Grill, Wanze"
1086,8351,50.534677,5.81356,5,35,2.5,4.5,5,4.5,4.5,"L'Atelier, Theux"
1087,11088,50.535368,4.783041,3.5,47,2.5,4,4,4,3.5,"Les Vents D'Anges, Saint-Denis-Bovesse"
1088,10426,50.535848,4.639442,3.5,97,2.5,4,4,4,4,"La Ferme d'Abondance, Sombreffe"
1089,8354,50.535993,5.812748,4,64,2.5,4.5,4.5,4,4.5,"Un Air de Famille, Theux"
1090,9134,50.536278,3.909236,4.5,105,2.5,4.5,4.5,4,4,"La Villa, Jurbise"
1091,9142,50.536278,3.909236,3.5,31,1,4.5,4.5,4.5,4.5,"China Town, Jurbise"
1092,9590,50.537335,5.215593,3.5,71,9,4,3.5,4,NA,"Bistronomie M, Wanze"
1093,9835,50.5376,5.479833,4.5,12,9,4.5,4.5,4.5,4.5,"IL Vulcano, Neupre"
1094,10831,50.537818,4.41421,4.5,16,9,4.5,4.5,4,NA,"&quot;Quelqu'un m'a dit&quot;, Bons Villers"
1095,8362,50.538941,5.752709,4.5,15,9,4.5,5,4.5,4,"L'eau Vive Sur La Route, Theux"
1096,11129,50.538995,3.426358,4.5,60,2.5,4.5,4.5,4.5,4.5,"Sel & Poivre, Hollain"
1097,9146,50.539053,3.907928,3,21,2.5,3.5,3.5,3.5,NA,"Los Gringos, Jurbise"
1098,10525,50.539147,4.041402,4,89,2.5,4,4,3.5,3.5,"La Gourmandine, Casteau"
1099,5996,50.540176,5.2209,4.5,158,4,4.5,4.5,4,4,"Lucana, Huy"
1100,9837,50.540774,5.460986,4,35,9,3.5,3.5,3,3.5,"La Bistronomie by Saveurs, Neupre"
1101,8974,50.541369,6.020634,4,85,2.5,4.5,4,4,4,"La Baraque Michel, Jalhay"
1102,9592,50.541385,5.151524,4,21,4,4.5,4,4,4.5,"Le Collet Gourmand, Wanze"
1103,9836,50.542671,5.484127,4,36,2.5,4.5,4.5,4.5,4.5,"La Palmeraie, Neupre"
1104,9591,50.542728,5.221433,4.5,11,9,4.5,4,4.5,3,"Le Pekin, Wanze"
1105,8363,50.544728,5.773396,4,37,2.5,4,3.5,4,3.5,"Vieux Tancremont, Theux"
1106,10971,50.545772,5.341747,3.5,25,9,4,3.5,4,NA,"Brasserie du Val d'Oxhe, Hermalle-sous-Huy"
1107,9294,50.546208,5.314515,4.5,27,9,4.5,4.5,4.5,3.5,"Pizzeria Il Tempio, Amay"
1108,10144,50.547384,3.903986,4.5,13,9,4.5,4,4,NA,"Chez Costa, Lens"
1109,11098,50.54755,5.023742,4,42,9,4.5,4.5,4,4,"Le Gout de MA Passion, Pontillas"
1110,9299,50.547844,5.31801,3.5,13,9,3.5,3.5,4,3.5,"L'amayricain, Amay"
1111,9300,50.548761,5.31888,3,110,2.5,3,3,3.5,3,"Le Saint-Loup, Amay"
1112,9838,50.553399,5.478956,4.5,19,4,4.5,4.5,4,4.5,"Le Chene Madame, Neupre"
1113,7763,50.553697,4.669752,4,136,4,4.5,4,4,4,"Baguettes Et Fourchette, Gembloux"
1114,7762,50.554091,4.670432,4.5,178,2.5,4.5,4.5,4,4,"Dynasty, Gembloux"
1115,8442,50.555004,5.522637,4,24,9,4,3.5,4,3.5,"La grande muraille, Boncelles"
1116,8441,50.555004,5.522637,4,68,9,4,4,3.5,4,"La Villa, Boncelles"
1117,9297,50.555736,5.306323,4,13,9,4,4,5,3.5,"Brasserie Omnisport, Amay"
1118,10912,50.555818,3.303543,4,11,9,4.5,4,4.5,NA,"Mia Casa, Rumes"
1119,10146,50.556105,3.901955,4,12,2.5,3,4,3.5,3,"La Lensoise, Lens"
1120,8975,50.557697,5.971309,4,28,2.5,4.5,3.5,4.5,4,"La Cremaillere, Jalhay"
1121,8428,50.558335,5.640132,4,46,2.5,4,4,4,4,"Il Ritrovo, Chaudfontaine"
1122,8977,50.558936,5.966882,4.5,20,2.5,4.5,4.5,4.5,4,"Il etait une fois, Jalhay"
1123,7777,50.55973,4.692389,4,43,9,4,4,4,4.5,"Brasserie Louis, Gembloux"
1124,7766,50.559752,4.691556,4.5,33,9,5,4.5,4.5,NA,"Le 20 Mets, Gembloux"
1125,7775,50.560007,4.691999,4,19,9,4,4,4,3,"Pizza Poldos, Gembloux"
1126,8429,50.560081,5.637405,3.5,42,4,4,3.5,3.5,3,"La Moule Parquee, Chaudfontaine"
1127,7770,50.560272,4.692429,4,36,2.5,4,4,4,4,"Il Padrino, Gembloux"
1128,7774,50.560438,4.693251,4,11,9,4.5,4.5,4,4.5,"Pizzeria Roma, Gembloux"
1129,8976,50.560895,5.947174,4,57,9,4,4.5,4,4,"Ferme du Helivy, Jalhay"
1130,7771,50.561066,4.697317,4.5,18,2.5,5,4.5,4.5,4.5,"DKLe, Gembloux"
1131,7769,50.561066,4.697317,4,59,2.5,4,3.5,3.5,3.5,"L'Estaminet, Gembloux"
1132,7768,50.561136,4.697262,4,23,2.5,4.5,4.5,4.5,NA,"L'Oriental, Gembloux"
1133,10732,50.561634,5.729419,4.5,44,2.5,4.5,4.5,4.5,4.5,"El Rincon Restaurante, Trooz"
1134,8444,50.561865,5.548237,4,67,2.5,4,4,3.5,NA,"Chez K, Boncelles"
1135,8436,50.561989,5.541236,4.5,107,4,4.5,4,4.5,4,"Les Grands Sarts, Boncelles"
1136,7765,50.562164,4.684156,4.5,80,2.5,4.5,4.5,4,4,"Salama, Gembloux"
1137,10733,50.562204,5.731326,4,23,9,4,4,4.5,3.5,Gas Trooz Nome
1138,10359,50.562346,3.806285,3,12,9,3.5,3.5,3.5,1,"Pacific Grill, Chievres"
1139,7761,50.562468,4.684435,4.5,182,4,4.5,4.5,4.5,4,"Chai Gourmand, Gembloux"
1140,8433,50.563416,5.635548,3,19,9,3.5,3.5,3.5,3.5,"L'Orangerie, Chaudfontaine"
1141,10671,50.564417,5.278737,3.5,275,4,3.5,3,3,3,"Un Temps Pour Soi, Villers-le-Bouillet"
1142,6984,50.564847,5.549087,3,91,2.5,3.5,3.5,3.5,3,"Vaudree 4, Seraing"
1143,9806,50.564912,5.829682,4,11,9,4,3,4,3.5,"Restaurant du Golf Du Haras, Pepinster"
1144,9802,50.565814,5.803613,4.5,42,2.5,4.5,4,4,4,"Au pot de beurre, Pepinster"
1145,9804,50.565925,5.773496,4,75,4,4,4.5,4,4,"Hostellerie Lafarque, Pepinster"
1146,10157,50.566142,4.173868,3.5,35,2.5,3.5,3.5,3,3,"Le Moulin du Fief, Ecaussinnes"
1147,8446,50.566441,5.547513,3.5,18,9,3.5,3.5,3.5,3.5,"Au sommet des pistes, Boncelles"
1148,8435,50.566503,5.548337,4.5,143,2.5,4.5,4.5,4.5,4,"Petros le Pelican, Boncelles"
1149,8448,50.566612,5.548706,3,43,2.5,3.5,3.5,3,3.5,"Le Kenworth, Boncelles"
1150,10670,50.566654,5.270419,4.5,47,2.5,4.5,4.5,4.5,4,"Le Cornet DAntan, Villers-le-Bouillet"
1151,10015,50.567135,4.267138,4,103,4,4,4,4,3.5,"L'O de Samme, Seneffe"
1152,10679,50.567147,3.447086,4.5,13,9,4.5,4.5,4.5,4,"Hoa Yang, Antoing"
1153,8449,50.567688,5.550221,3,91,2.5,3,3,3,3,"La Capannina, Boncelles"
1154,5074,50.567992,3.393408,4.5,60,9,4.5,4.5,4.5,4.5,"La Table d'Eric, Tournai"
1155,8437,50.568001,5.530456,4,51,9,4.5,4.5,4,3.5,"Le Bouche a Oreille, Boncelles"
1156,7781,50.569319,4.693614,4,12,2.5,3.5,4.5,4.5,NA,"brasserie des 3 cles, Gembloux"
1157,10155,50.570195,4.179616,4.5,117,4,4.5,4.5,4.5,4.5,"Le Pilori, Ecaussinnes"
1158,10780,50.571322,3.565816,4,73,9,4,4,4,4,"La Petite Fontaine, Pipaix"
1159,10781,50.57153,3.559373,4.5,13,9,5,5,5,4.5,"Le Romantik, Pipaix"
1160,7773,50.572183,4.697861,3.5,118,2.5,3.5,3.5,3.5,3.5,"San Marino, Gembloux"
1161,10731,50.574487,5.688004,4.5,41,9,4.5,4.5,4.5,4.5,Taverne de Trooz
1162,10760,50.575048,5.868381,4,35,9,4,4,4,4.5,"La Brasserie du Coin, Heusy"
1163,9832,50.576287,4.866505,4,14,9,4.5,4,4,3.5,"La Table d'Upignac, Eghezee"
1164,7764,50.577724,4.704495,4,128,2.5,4,4,4,4,"La Maison Blanche, Gembloux"
1165,3449,50.5783308,5.5944945,4,78,4,4.5,4,4,3.5,"Brasserie Heliport, Liege"
1166,8443,50.57889,5.528122,3.5,57,1,4,3.5,4,NA,"Chicky's, Boncelles"
1167,6192,50.57968,5.902176,4,11,9,4,4,4.5,4,"Le Chalet du Lac, Verviers"
1168,10672,50.5802,5.212277,4,33,9,4.5,4,4,NA,"La Mouliniere, Villers-le-Bouillet"
1169,8426,50.580551,5.639304,4,37,2.5,4.5,4.5,4,5,"Chez Cadet, Chaudfontaine"
1170,6070,50.581057,4.297628,4,35,4,4,4,4,4.5,"Le Septieme Sens, Nivelles"
1171,6962,50.581811,5.507037,4.5,76,9,4.5,4.5,4.5,NA,"Les Salons Ranieri, Seraing"
1172,9432,50.581884,5.356933,4,22,9,4,4,4.5,4,"Chef Zhou, Saint-Georges-sur-Meuse"
1173,6050,50.582234,4.411461,4.5,84,2.5,4.5,4.5,4.5,4.5,"La Meunerie, Nivelles"
1174,6190,50.582381,5.839376,4.5,14,9,4.5,4.5,5,4.5,"AU Logis des Raines, Verviers"
1175,5097,50.58243,3.366285,4,93,2.5,4.5,4,4,4,"Curry Madras, Tournai"
1176,6173,50.583261,5.860894,4,56,1,4.5,4.5,4.5,4.5,"Brasserie le Citron-Menthe, Verviers"
1177,9964,50.583676,5.613999,4.5,19,9,4.5,4.5,5,4,"Pret a Table, Embourg"
1178,9959,50.583676,5.613999,4.5,96,2.5,4.5,4.5,4,4.5,"Les coudes sur la table, Embourg"
1179,9829,50.584024,4.901282,4,81,9,4.5,4,4,4,"Le tamarin, Eghezee"
1180,6169,50.584223,5.86502,4,46,2.5,4,3.5,4,3.5,"new shangai, Verviers"
1181,6187,50.584307,5.856096,4,12,2.5,4,4.5,4,5,"Au 12E Top, Verviers"
1182,8580,50.584368,4.220759,3.5,70,2.5,3.5,3.5,3.5,3.5,"La Tour Glacee, Braine-Le-Comte"
1183,6096,50.584772,4.303351,3,19,1,3.5,2.5,3.5,2.5,"Lunch garden, Nivelles"
1184,6963,50.584887,5.506475,4.5,57,9,4.5,4.5,4.5,4.5,"Le Moulin a Poivre, Seraing"
1185,6179,50.585238,5.832138,3.5,49,9,3.5,4,3.5,3,"Au Relais, Verviers"
1186,8973,50.585262,5.968146,4,36,2.5,4,4,4,4,"la tour de la gileppe et la decouverte du barrage et des Fagnes, Jalhay"
1187,6171,50.585554,5.87153,4,28,2.5,4.5,4.5,4.5,4.5,"La Storia, Verviers"
1188,8750,50.585621,3.65216,4,16,9,4,4,4,NA,"Le restaurant de la ferme, Leuze-en-Hainaut"
1189,8422,50.586439,5.642737,4,109,2.5,4,4,4,4,"Rive Droite Brasserie Restaurant, Chaudfontaine"
1190,8434,50.586973,5.6377,3.5,33,2.5,3.5,3.5,3.5,2.5,"La Scuderia, Chaudfontaine"
1191,8145,50.588714,5.464688,4,13,9,4,4,4,5,"Chez Cha Cha, Flemalle"
1192,6094,50.58885,4.309473,3,21,2.5,3.5,3.5,3,3.5,"Pizza Hut, Nivelles"
1193,6088,50.58885,4.309473,3.5,42,9,4,3.5,3.5,3.5,"La vie parisienne, Nivelles"
1194,10421,50.589022,3.880136,3.5,37,1,3.5,4,3.5,NA,"Restaurant Oasis Pairi Daiza, Brugelette"
1195,6156,50.5891,5.86053,4.5,131,4,4.5,4.5,4,4.5,"Au clair obscur, Verviers"
1196,9965,50.589266,5.608067,3.5,61,9,3.5,3.5,3.5,3.5,"L'Atelier Cuisine, Embourg"
1197,6163,50.589362,5.848297,4,40,9,4.5,4,4.5,3.5,"Au Vi Houget, Verviers"
1198,9960,50.590139,5.606931,4,104,4,4,4,3.5,4,"Bonheur Simple, Embourg"
1199,8135,50.590147,5.441633,4.5,98,4,4.5,4.5,4,4,"L entre Roche & Eau, Flemalle"
1200,8136,50.590218,5.471556,4.5,53,9,4.5,4.5,4.5,4,"Le Vieux Cellier, Flemalle"
1201,9981,50.590236,4.529015,3.5,44,2.5,3,3.5,3,5,"La Cave du Moulin, Villers-la-ville"
1202,6181,50.590504,5.857193,4.5,12,9,4.5,4.5,5,5,"L'Exquis, Verviers"
1203,9833,50.591036,4.915278,2.5,45,9,3,2.5,3,3,"Le Cheval Blanc, Eghezee"
1204,8423,50.591131,5.63268,4.5,71,2.5,4.5,4.5,4,4,"Le Long du Bief, Chaudfontaine"
1205,8425,50.591213,5.63183,4.5,34,4,4.5,4.5,4,NA,"Chateau des Thermes, Chaudfontaine"
1206,9827,50.591423,4.913094,4.5,46,9,4.5,4.5,4.5,NA,"Au Tour Du Vin, Eghezee"
1207,6978,50.59146,5.497297,3.5,19,9,3.5,3,3.5,NA,"Tout est bon dans le cochon, Seraing"
1208,6983,50.59146,5.497297,3,13,9,3.5,3.5,3.5,NA,"Wok Imperial, Seraing"
1209,6976,50.591509,5.497364,4.5,14,9,4,4.5,4.5,4,"Burger Factory, Seraing"
1210,9803,50.59154,5.81102,4.5,21,9,4.5,4,4.5,NA,"Ferme du Harras, Pepinster"
1211,9805,50.59165,5.790621,4.5,24,2.5,4.5,4.5,4.5,4,"Restaurant Le Vieux Soiron, Pepinster"
1212,6184,50.591824,5.855615,4,17,9,4,4.5,4,NA,"Bar et Resto en Harmonie, Verviers"
1213,6174,50.592002,5.85689,4,45,2.5,4,4,4,4,"Enoteca della Cucina, Verviers"
1214,6186,50.592219,5.864455,4.5,15,9,4.5,4.5,4.5,4.5,"Le Dragon Bol, Verviers"
1215,6164,50.592236,5.858092,4.5,36,2.5,4.5,4.5,4.5,4,"L'Atlas, Verviers"
1216,6160,50.592656,5.859939,4.5,60,2.5,4,4.5,4.5,5,"L'Ogre de Barbarie, Verviers"
1217,6191,50.592797,5.84904,3,162,2.5,3,3,3,3.5,"L'Entrepot, Verviers"
1218,6193,50.592797,5.84904,3.5,88,2.5,3.5,3.5,3,3.5,Hotel Verviers Van der Valk Restaurant
1219,6168,50.592819,5.859783,4,61,1,4,4,4.5,4.5,"La Boule Rouge, Verviers"
1220,4123,50.5928469,4.8329249,4.5,337,4,4.5,4.5,4,4,"L'air du temps, Namur"
1221,6964,50.59298,5.493031,4.5,22,2.5,4.5,4.5,4.5,4.5,"Amarena, Seraing"
1222,6161,50.593001,5.854732,4.5,55,2.5,4.5,4.5,4.5,4,"Pella Restaurant, Verviers"
1223,9434,50.593109,5.341646,3.5,47,2.5,3.5,3.5,3,3.5,"Il Fienile, Saint-Georges-sur-Meuse"
1224,6162,50.593592,5.860269,4,118,2.5,4.5,4,4,4,"Le Charlemagne, Verviers"
1225,9961,50.593763,5.606624,4,159,2.5,4,4,3.5,3.5,"Robertissimo, Embourg"
1226,6182,50.594,5.85002,3.5,51,2.5,3.5,3.5,3.5,3.5,"L'Eautrement, Verviers"
1227,5162,50.594002,3.53045,3,23,9,3,2.5,3.5,3,"Pica Pica Grill's, Tournai"
1228,6059,50.594076,4.370356,4,50,9,4,4,4,NA,"Auberge De Thines, Nivelles"
1229,6170,50.594087,5.849704,4,29,9,4,4,4,NA,"L'epee Gourmande, Verviers"
1230,6176,50.59414,5.849568,4,35,2.5,4.5,4.5,4.5,4,"Quai Novele, Verviers"
1231,6152,50.594172,5.848619,4.5,298,2.5,4.5,4.5,4.5,4.5,"Au Vieux Cerexhe, Verviers"
1232,6195,50.594218,5.849145,2,34,9,2,2.5,2,2.5,"Au Ptit Bouchon, Verviers"
1233,6159,50.594218,5.849145,4.5,60,9,4,4.5,4,4.5,"Voi e Noi, Verviers"
1234,6188,50.594269,5.8482,4,64,2.5,4,4,4,3.5,"Eau 1725, Verviers"
1235,6965,50.59442,5.490878,4.5,36,2.5,4.5,4.5,4.5,4.5,"Le 300, Seraing"
1236,9828,50.594489,4.910232,4.5,54,2.5,4.5,4.5,4,4.5,"La Cuisine de Papa, Eghezee"
1237,8146,50.59457,5.457879,3.5,12,9,4,4,4,4.5,"Cuisine Asiatique Chef Lin, Flemalle"
1238,6177,50.594683,5.872808,4,39,1,4.5,4,4.5,4,"Le Petit Dragon Forsythia, Verviers"
1239,6072,50.595297,4.338513,4,16,9,4,4,4,NA,"La Spaghardiere, Nivelles"
1240,8137,50.595379,5.4108,4.5,30,4,4.5,4.5,4.5,4.5,"Le Bistro des Gourmets, Flemalle"
1241,6063,50.595431,4.328779,4,80,4,4.5,4,4,4,"L'Avenue, Nivelles"
1242,7558,50.595515,3.852311,4,63,2.5,4,4,4,NA,"Trolls & Bush, Ath"
1243,9612,50.595571,5.57469,4,87,2.5,4,4,4,4,"Le Temple du Gout, Angleur"
1244,6973,50.595815,5.483563,4,21,9,4,4,4,NA,"Don Giovanni, Seraing"
1245,6985,50.595849,5.500373,4.5,24,9,4.5,4.5,5,NA,"L'Express Pub, Seraing"
1246,8747,50.596017,3.599284,4.5,39,4,4.5,4,3.5,4,"Le Chalet De La Bourgogne, Leuze-en-Hainaut"
1247,8744,50.596031,3.617685,4.5,33,9,4.5,4.5,4.5,4,"Il Sorrento, Leuze-en-Hainaut"
1248,6065,50.596119,4.325797,4.5,31,2.5,4.5,4.5,4,NA,"SoZo Sushi, Nivelles"
1249,5125,50.596126,3.470337,4.5,15,1,4.5,4.5,4.5,NA,"L'Enoteca, Tournai"
1250,6056,50.596521,4.323269,4.5,38,9,4.5,4.5,4,4.5,"A Cote de Chez Joseph, Nivelles"
1251,6081,50.596763,4.324309,3.5,46,1,3.5,3.5,3.5,3,"La Farandole, Nivelles"
1252,6052,50.59701,4.323305,4.5,132,2.5,4.5,4.5,4.5,4.5,"LOLI Ambiance Lounge, Nivelles"
1253,10552,50.597058,4.532502,4.5,37,9,4,4.5,4,4,"Le Chevelipont, Court-Saint-Etienne"
1254,6071,50.597061,4.324892,4.5,30,9,4.5,4.5,4,3.5,"Les Baguettes D'Or, Nivelles"
1255,6093,50.597356,4.32254,3,88,2.5,3,3,2.5,3,"Brasserie Des Arts, Nivelles"
1256,6090,50.597377,4.324955,3,47,2.5,3,3.5,3,3,"Taverne Christensen, Nivelles"
1257,6095,50.59747,4.324909,3,21,2.5,3,3,3,3.5,"Hotel du Commerce, Nivelles"
1258,6097,50.59747,4.324909,2.5,12,1,2.5,3,3,4,"Aux Arcades, Nivelles"
1259,6971,50.597597,5.511125,4.5,28,9,4.5,4.5,4.5,NA,"Achilles le Grec, Seraing"
1260,6051,50.597645,4.324775,4.5,54,2.5,4.5,4.5,4.5,NA,"Le Clair De Lune, Nivelles"
1261,6061,50.597666,4.356616,4.5,35,2.5,4.5,4,4,3.5,"Le Coq d'Or, Nivelles"
1262,6084,50.597731,4.324706,3.5,45,9,4,3.5,4,3.5,"Aklo Cafe, Nivelles"
1263,8141,50.598279,5.467401,4.5,14,9,4.5,4.5,4.5,4.5,"Le Franc-Yves, Flemalle"
1264,8148,50.598309,5.467477,3.5,12,9,3.5,3.5,3.5,4.5,"La Maison du Peuple, Flemalle"
1265,6055,50.598521,4.326627,4.5,79,2.5,4.5,4.5,4.5,4.5,"L'ambroisie, Nivelles"
1266,6082,50.598594,4.326857,4,23,9,4,4,4,4,"Il Cortile, Nivelles"
1267,8140,50.598673,5.468489,5,14,9,4.5,5,5,5,"Le Cabanon, Flemalle"
1268,6069,50.598797,4.324831,4,23,9,4,4,4,4,"Ar-Vro, Nivelles"
1269,6060,50.598797,4.324831,4,54,9,4,4,4,3.5,"Phenicia Plaza, Nivelles"
1270,6054,50.598905,4.324825,4,154,2.5,4,4,4,4,"Restaurant Ile Maurice, Nivelles"
1271,6057,50.599017,4.323307,4,99,2.5,4,4,4,4,"Le P'Tit Gabriel, Nivelles"
1272,6047,50.599038,4.323153,4.5,114,2.5,4.5,4.5,4.5,4,"Dis-moi ou, Nivelles"
1273,9966,50.599039,5.615442,4,14,9,4,4.5,4,4,"La Petite Epicerie a Cote de la Pharmacie, Embourg"
1274,6076,50.599163,4.324779,3.5,28,2.5,4,4,4,NA,"Cigalon, Nivelles"
1275,10519,50.59926,5.852085,4.5,11,9,5,4,4.5,4,"Mystic Pizza Da Renato, Dison"
1276,6073,50.599405,4.329419,4,55,2.5,4,4,4,3.5,"Les Beliers, Nivelles"
1277,6049,50.599509,4.330469,4.5,158,9,4.5,4.5,4.5,4.5,"Il Etait une Fois...Toi et Moi, Nivelles"
1278,6966,50.599878,5.511132,4,105,9,4,4,4,4,"Il violino, Seraing"
1279,8139,50.599939,5.465657,4,39,9,4,4,4,4,"L'Atelier des Saveurs, Flemalle"
